{
"type": "FeatureCollection",
"crs": { "type": "name", "properties": { "name": "urn:ogc:def:crs:OGC:1.3:CRS84" } },
                                                                                
"features": [
{ "type": "Feature", "properties": { "name": "ПЧ-1", "staff": 72, "address": "г.Кокшетау, пр-т Абылай-Хана, д.1а.", "tech_base": 2, "tech_spec": 2, "tech_anc": 4, "KATO_obl": 110000000, "KATO_rai": 111010000, "region": 0, "district": 0, "USL": "00000024", "UNIT_ID": 760.000000, "DIC_MES_OR": 0.000000, "KATO": "111010000", "Contacts": null }, "geometry": { "type": "Point", "coordinates": [ 69.392062291635625, 53.295702522899461 ] } },
{ "type": "Feature", "properties": { "name": "ПЧТС", "staff": 25, "address": "г.Кокшетау, ул.Станиславского, д.62", "tech_base": 15, "tech_spec": 5, "tech_anc": 12, "KATO_obl": 110000000, "KATO_rai": 111010000, "region": 0, "district": 0, "USL": "00000024", "UNIT_ID": 761.000000, "DIC_MES_OR": 0.000000, "KATO": "111010000", "Contacts": null }, "geometry": { "type": "Point", "coordinates": [ 69.434530066742298, 53.297532388356203 ] } },
{ "type": "Feature", "properties": { "name": "ПП при ПЧ-5", "staff": 13, "address": "Аккольский район, г.Акколь, ул. Бегельдина, д.66", "tech_base": 0, "tech_spec": 0, "tech_anc": 0, "KATO_obl": 110000000, "KATO_rai": 113200000, "region": 0, "district": 0, "USL": "00000024", "UNIT_ID": 764.000000, "DIC_MES_OR": 0.000000, "KATO": "113220100", "Contacts": null }, "geometry": { "type": "Point", "coordinates": [ 70.942601787190242, 51.992322068779288 ] } },
{ "type": "Feature", "properties": { "name": "СО", "staff": 31, "address": "Бурабайский район, г.Щучинск, трасса Астана-Петропавловск", "tech_base": 0, "tech_spec": 0, "tech_anc": 0, "KATO_obl": 110000000, "KATO_rai": 117000000, "region": 0, "district": 0, "USL": "00000025", "UNIT_ID": 782.000000, "DIC_MES_OR": 0.000000, "KATO": "117020100", "Contacts": null }, "geometry": { "type": "Point", "coordinates": [ 70.119735600440364, 52.9873114475443 ] } },
{ "type": "Feature", "properties": { "name": "ПП при ПЧ-22", "staff": 13, "address": "Целиноградский район, с. Кабанбай-Батыра", "tech_base": 2, "tech_spec": 0, "tech_anc": 0, "KATO_obl": 110000000, "KATO_rai": 116600000, "region": 0, "district": 0, "USL": "00000024", "UNIT_ID": 789.000000, "DIC_MES_OR": 0.000000, "KATO": "116665100", "Contacts": null }, "geometry": { "type": "Point", "coordinates": [ 71.359050154584324, 50.855394967919949 ] } },
{ "type": "Feature", "properties": { "name": "Опорный пункт СПЧ-1 по АСР", "staff": 37, "address": "г. Актобе, ул. Гришина 64а", "tech_base": 3, "tech_spec": 1, "tech_anc": 3, "KATO_obl": 150000000, "KATO_rai": 151010000, "region": 0, "district": 0, "USL": "0", "UNIT_ID": 338.000000, "DIC_MES_OR": 0.000000, "KATO": "151010000", "Contacts": null }, "geometry": { "type": "Point", "coordinates": [ 57.164660220351216, 50.280153317281361 ] } },
{ "type": "Feature", "properties": { "name": "ПЧ-2", "staff": 58, "address": "г. Актобе, ул. Пожарная 29а", "tech_base": 3, "tech_spec": 1, "tech_anc": 2, "KATO_obl": 150000000, "KATO_rai": 151010000, "region": 0, "district": 0, "USL": "00000024", "UNIT_ID": 339.000000, "DIC_MES_OR": 0.000000, "KATO": "151010000", "Contacts": null }, "geometry": { "type": "Point", "coordinates": [ 57.234484367448999, 50.285358377700625 ] } },
{ "type": "Feature", "properties": { "name": "ПЧ-3 г. Актобе техническая служба", "staff": 23, "address": "г. Актобе, п.Курашасай ул. Абая 328", "tech_base": 7, "tech_spec": 2, "tech_anc": 5, "KATO_obl": 150000000, "KATO_rai": 151010000, "region": 0, "district": 0, "USL": "00000024", "UNIT_ID": 340.000000, "DIC_MES_OR": 0.000000, "KATO": "151039200", "Contacts": null }, "geometry": { "type": "Point", "coordinates": [ 56.968944483199138, 50.272711415356873 ] } },
{ "type": "Feature", "properties": { "name": "ПЧ-6", "staff": 23, "address": "Алгинский район, г. Алга, ул. Кирова 3", "tech_base": 2, "tech_spec": 1, "tech_anc": 0, "KATO_obl": 150000000, "KATO_rai": 153200000, "region": 0, "district": 0, "USL": "00000024", "UNIT_ID": 341.000000, "DIC_MES_OR": 0.000000, "KATO": "153220100", "Contacts": null }, "geometry": { "type": "Point", "coordinates": [ 57.337316535638273, 49.892932433815055 ] } },
{ "type": "Feature", "properties": { "name": "ПЧ-7", "staff": 16, "address": "Айтекебийский район, с. Комсомолькое, ул. Алтынсарина 27", "tech_base": 2, "tech_spec": 0, "tech_anc": 1, "KATO_obl": 150000000, "KATO_rai": 153400000, "region": 0, "district": 0, "USL": "00000024", "UNIT_ID": 342.000000, "DIC_MES_OR": 0.000000, "KATO": "153430100", "Contacts": null }, "geometry": { "type": "Point", "coordinates": [ 60.509627034756555, 50.429288062648261 ] } },
{ "type": "Feature", "properties": { "name": "Пост ПЧ-7", "staff": 13, "address": "Айтекебийский район, с. Карабутак", "tech_base": 2, "tech_spec": 0, "tech_anc": 0, "KATO_obl": 150000000, "KATO_rai": 153400000, "region": 0, "district": 0, "USL": "00000024", "UNIT_ID": 343.000000, "DIC_MES_OR": 0.000000, "KATO": "153453100", "Contacts": null }, "geometry": { "type": "Point", "coordinates": [ 60.121801017117143, 49.949175697264074 ] } },
{ "type": "Feature", "properties": { "name": "ПЧ-8", "staff": 19, "address": "Байганинский район, с. Байганин, ул. Курлысшылар 16", "tech_base": 2, "tech_spec": 0, "tech_anc": 0, "KATO_obl": 150000000, "KATO_rai": 153600000, "region": 0, "district": 0, "USL": "00000024", "UNIT_ID": 344.000000, "DIC_MES_OR": 0.000000, "KATO": "153630100", "Contacts": null }, "geometry": { "type": "Point", "coordinates": [ 55.88936208622988, 48.683484707235436 ] } },
{ "type": "Feature", "properties": { "name": "ПЧ-9", "staff": 15, "address": "Иргизский район, с. Иргиз, ул. Карабаева 3", "tech_base": 2, "tech_spec": 0, "tech_anc": 0, "KATO_obl": 150000000, "KATO_rai": 156800000, "region": 0, "district": 0, "USL": "00000024", "UNIT_ID": 345.000000, "DIC_MES_OR": 0.000000, "KATO": "156830100", "Contacts": null }, "geometry": { "type": "Point", "coordinates": [ 61.279992663353035, 48.619149975278781 ] } },
{ "type": "Feature", "properties": { "name": "ПЧ-11", "staff": 17, "address": "Мартукский район, п. Мартук, ул.312 Стр.дивизии", "tech_base": 2, "tech_spec": 0, "tech_anc": 0, "KATO_obl": 150000000, "KATO_rai": 154600000, "region": 0, "district": 0, "USL": "00000024", "UNIT_ID": 347.000000, "DIC_MES_OR": 0.000000, "KATO": "154630100", "Contacts": null }, "geometry": { "type": "Point", "coordinates": [ 56.518064357514696, 50.744628119774397 ] } },
{ "type": "Feature", "properties": { "name": "ПЧ-12", "staff": 22, "address": "Мугалжарский район, г. Кандыагаш, ул. Калиева 8", "tech_base": 2, "tech_spec": 0, "tech_anc": 0, "KATO_obl": 150000000, "KATO_rai": 154800000, "region": 0, "district": 0, "USL": "00000024", "UNIT_ID": 348.000000, "DIC_MES_OR": 0.000000, "KATO": "154820100", "Contacts": null }, "geometry": { "type": "Point", "coordinates": [ 57.422894904997605, 49.453439327309916 ] } },
{ "type": "Feature", "properties": { "name": "Пост ПЧ-12", "staff": 13, "address": "Мугалжарский район, г. Эмба, ул. Айтекеби", "tech_base": 2, "tech_spec": 0, "tech_anc": 0, "KATO_obl": 150000000, "KATO_rai": 154800000, "region": 0, "district": 0, "USL": "00000024", "UNIT_ID": 349.000000, "DIC_MES_OR": 0.000000, "KATO": "154823100", "Contacts": null }, "geometry": { "type": "Point", "coordinates": [ 58.144904289223582, 48.821559885988755 ] } },
{ "type": "Feature", "properties": { "name": "ПЧ-13", "staff": 19, "address": "Темирский район, п. Шубаркудук, ул. Асау Барака 4", "tech_base": 2, "tech_spec": 0, "tech_anc": 1, "KATO_obl": 150000000, "KATO_rai": 155600000, "region": 0, "district": 0, "USL": "00000024", "UNIT_ID": 350.000000, "DIC_MES_OR": 0.000000, "KATO": "155630700", "Contacts": null }, "geometry": { "type": "Point", "coordinates": [ 56.573620965400032, 49.20186771502609 ] } },
{ "type": "Feature", "properties": { "name": "Пост ПЧ-13", "staff": 13, "address": "Темирский район, г. Темир, ул. Баишева 5", "tech_base": 2, "tech_spec": 0, "tech_anc": 0, "KATO_obl": 150000000, "KATO_rai": 155600000, "region": 0, "district": 0, "USL": "00000024", "UNIT_ID": 351.000000, "DIC_MES_OR": 0.000000, "KATO": "155621100", "Contacts": null }, "geometry": { "type": "Point", "coordinates": [ 57.129391888884513, 49.134484531531193 ] } },
{ "type": "Feature", "properties": { "name": "ПЧ-14", "staff": 18, "address": "Уилский район, п. Уил, ул. Жолмырзаева 9", "tech_base": 2, "tech_spec": 0, "tech_anc": 0, "KATO_obl": 150000000, "KATO_rai": 155200000, "region": 0, "district": 0, "USL": "00000024", "UNIT_ID": 352.000000, "DIC_MES_OR": 0.000000, "KATO": "155230100", "Contacts": null }, "geometry": { "type": "Point", "coordinates": [ 54.668728726054553, 49.070629949818652 ] } },
{ "type": "Feature", "properties": { "name": "ПЧ-15", "staff": 18, "address": "Хобдинский район, п. Кобда, ул. Желтоксан 24", "tech_base": 2, "tech_spec": 0, "tech_anc": 0, "KATO_obl": 150000000, "KATO_rai": 154200000, "region": 0, "district": 0, "USL": "00000024", "UNIT_ID": 353.000000, "DIC_MES_OR": 0.000000, "KATO": "154230100", "Contacts": null }, "geometry": { "type": "Point", "coordinates": [ 55.682625705781106, 50.140106172931361 ] } },
{ "type": "Feature", "properties": { "name": "ПЧ-16", "staff": 18, "address": "Хромтауский район, г. Хромтау, ул. Г. Жубанова 2", "tech_base": 3, "tech_spec": 0, "tech_anc": 0, "KATO_obl": 150000000, "KATO_rai": 156000000, "region": 0, "district": 0, "USL": "00000024", "UNIT_ID": 354.000000, "DIC_MES_OR": 0.000000, "KATO": "156020100", "Contacts": null }, "geometry": { "type": "Point", "coordinates": [ 58.432339311356614, 50.242308400232481 ] } },
{ "type": "Feature", "properties": { "name": "ПЧ-17", "staff": 24, "address": "Шалкарский район, г. Шалкар, ул. Котибарулы 86", "tech_base": 3, "tech_spec": 0, "tech_anc": 0, "KATO_obl": 150000000, "KATO_rai": 156400000, "region": 0, "district": 0, "USL": "00000024", "UNIT_ID": 355.000000, "DIC_MES_OR": 0.000000, "KATO": "156420100", "Contacts": null }, "geometry": { "type": "Point", "coordinates": [ 59.627892461587528, 47.821283360827309 ] } },
{ "type": "Feature", "properties": { "name": "ПЧ-18", "staff": 28, "address": "г. Актюбе, с. Каргалинское", "tech_base": 3, "tech_spec": 0, "tech_anc": 2, "KATO_obl": 150000000, "KATO_rai": 151010000, "region": 0, "district": 0, "USL": "00000024", "UNIT_ID": 356.000000, "DIC_MES_OR": 0.000000, "KATO": "151035100", "Contacts": null }, "geometry": { "type": "Point", "coordinates": [ 57.313055436519392, 50.308454031521848 ] } },
{ "type": "Feature", "properties": { "name": "Аппарат управления", "staff": 42, "address": "г. Актобе, ул. Гришина 64а", "tech_base": 0, "tech_spec": 0, "tech_anc": 0, "KATO_obl": 150000000, "KATO_rai": 151010000, "region": 0, "district": 0, "USL": "0", "UNIT_ID": 0.000000, "DIC_MES_OR": 0.000000, "KATO": "151010000", "Contacts": null }, "geometry": { "type": "Point", "coordinates": [ 57.164660739577435, 50.280155175495018 ] } },
{ "type": "Feature", "properties": { "name": "ШПП", "staff": 7, "address": "г. Актобе, п.Курашасай ул. Абая 328", "tech_base": 0, "tech_spec": 0, "tech_anc": 1, "KATO_obl": 150000000, "KATO_rai": 151010000, "region": 0, "district": 0, "USL": "0", "UNIT_ID": 357.000000, "DIC_MES_OR": 0.000000, "KATO": "151039200", "Contacts": null }, "geometry": { "type": "Point", "coordinates": [ 56.968944483199138, 50.272711415356873 ] } },
{ "type": "Feature", "properties": { "name": "ЦОУСС", "staff": 24, "address": "г. Актобе, ул. Маресьева 81а", "tech_base": 0, "tech_spec": 0, "tech_anc": 2, "KATO_obl": 150000000, "KATO_rai": 151010000, "region": 0, "district": 0, "USL": "0", "UNIT_ID": 358.000000, "DIC_MES_OR": 0.000000, "KATO": "151010000", "Contacts": null }, "geometry": { "type": "Point", "coordinates": [ 57.150538232469316, 50.301771054457916 ] } },
{ "type": "Feature", "properties": { "name": "ШПП", "staff": 7, "address": "г. Павлодар, ул. Московская 56", "tech_base": 0, "tech_spec": 0, "tech_anc": 1, "KATO_obl": 550000000, "KATO_rai": 551010000, "region": 0, "district": 0, "USL": "0", "UNIT_ID": 363.000000, "DIC_MES_OR": 0.000000, "KATO": "551010000", "Contacts": null }, "geometry": { "type": "Point", "coordinates": [ 76.98255279315218, 52.292809520534234 ] } },
{ "type": "Feature", "properties": { "name": "Отдельный пост г. Павлодара", "staff": 18, "address": "г. Павлодар, ул. Майры 4", "tech_base": 2, "tech_spec": 0, "tech_anc": 0, "KATO_obl": 550000000, "KATO_rai": 551010000, "region": 0, "district": 0, "USL": "00000025", "UNIT_ID": 364.000000, "DIC_MES_OR": 0.000000, "KATO": "551010000", "Contacts": null }, "geometry": { "type": "Point", "coordinates": [ 76.947173611376044, 52.246682480073282 ] } },
{ "type": "Feature", "properties": { "name": "Пожарно-технический центр", "staff": 10, "address": "г.Павлодар, ул.Исиналиева 2", "tech_base": 1, "tech_spec": 1, "tech_anc": 0, "KATO_obl": 550000000, "KATO_rai": 551010000, "region": 0, "district": 0, "USL": "0", "UNIT_ID": 365.000000, "DIC_MES_OR": 0.000000, "KATO": "551010000", "Contacts": null }, "geometry": { "type": "Point", "coordinates": [ 76.936046145815666, 52.27897481180301 ] } },
{ "type": "Feature", "properties": { "name": "ПЧ-1", "staff": 66, "address": "г.Усть-Каменогорск, ул. Бурова, 4", "tech_base": 5, "tech_spec": 1, "tech_anc": 2, "KATO_obl": 630000000, "KATO_rai": 631010000, "region": 0, "district": 0, "USL": "00000024", "UNIT_ID": 400.000000, "DIC_MES_OR": 0.000000, "KATO": "631010000", "Contacts": null }, "geometry": { "type": "Point", "coordinates": [ 82.639957535233975, 49.948432158447382 ] } },
{ "type": "Feature", "properties": { "name": "ПЧ-2", "staff": 65, "address": "г.Усть-Каменогорск, пр. Независимости, 73", "tech_base": 5, "tech_spec": 1, "tech_anc": 3, "KATO_obl": 630000000, "KATO_rai": 631010000, "region": 0, "district": 0, "USL": "00000024", "UNIT_ID": 401.000000, "DIC_MES_OR": 0.000000, "KATO": "631010000", "Contacts": null }, "geometry": { "type": "Point", "coordinates": [ 82.580300339062177, 49.979093493527493 ] } },
{ "type": "Feature", "properties": { "name": "ПЧ-3", "staff": 62, "address": "г.Усть-Каменогорск, Самарское шоссе, 4", "tech_base": 4, "tech_spec": 1, "tech_anc": 2, "KATO_obl": 630000000, "KATO_rai": 631010000, "region": 0, "district": 0, "USL": "00000024", "UNIT_ID": 402.000000, "DIC_MES_OR": 0.000000, "KATO": "631010000", "Contacts": null }, "geometry": { "type": "Point", "coordinates": [ 82.636862161750472, 49.90288466415349 ] } },
{ "type": "Feature", "properties": { "name": "ПЧ-4", "staff": 38, "address": "г.Усть-Каменогорск, ул. Крутая, 11", "tech_base": 3, "tech_spec": 0, "tech_anc": 1, "KATO_obl": 630000000, "KATO_rai": 631010000, "region": 0, "district": 0, "USL": "00000024", "UNIT_ID": 403.000000, "DIC_MES_OR": 0.000000, "KATO": "631010000", "Contacts": null }, "geometry": { "type": "Point", "coordinates": [ 82.697770675180422, 49.895685079729283 ] } },
{ "type": "Feature", "properties": { "name": "ПЧ-5", "staff": 57, "address": "г.Усть-Каменогорск, п. Новая Согра", "tech_base": 4, "tech_spec": 0, "tech_anc": 6, "KATO_obl": 630000000, "KATO_rai": 631010000, "region": 0, "district": 0, "USL": "00000024", "UNIT_ID": 404.000000, "DIC_MES_OR": 0.000000, "KATO": "631010000", "Contacts": null }, "geometry": { "type": "Point", "coordinates": [ 82.652882641967281, 50.007670894428394 ] } },
{ "type": "Feature", "properties": { "name": "ПЧ-6", "staff": 60, "address": "г.Усть-Каменогорск, п. Новая Гавань, 6", "tech_base": 5, "tech_spec": 0, "tech_anc": 2, "KATO_obl": 630000000, "KATO_rai": 631010000, "region": 0, "district": 0, "USL": "00000024", "UNIT_ID": 405.000000, "DIC_MES_OR": 0.000000, "KATO": "631010000", "Contacts": null }, "geometry": { "type": "Point", "coordinates": [ 82.639001937977469, 49.988345542709034 ] } },
{ "type": "Feature", "properties": { "name": "ПЧ-9", "staff": 47, "address": "г.Усть-Каменогорск, Объездная магистраль, 13\/1", "tech_base": 4, "tech_spec": 0, "tech_anc": 1, "KATO_obl": 630000000, "KATO_rai": 631010000, "region": 0, "district": 0, "USL": "00000024", "UNIT_ID": 406.000000, "DIC_MES_OR": 0.000000, "KATO": "631010000", "Contacts": null }, "geometry": { "type": "Point", "coordinates": [ 82.622986054439934, 49.994551586283173 ] } },
{ "type": "Feature", "properties": { "name": "ПЧ-11", "staff": 34, "address": "г.Усть-Каменогорск, ул. Степная, 4", "tech_base": 3, "tech_spec": 2, "tech_anc": 0, "KATO_obl": 630000000, "KATO_rai": 631010000, "region": 0, "district": 0, "USL": "00000024", "UNIT_ID": 407.000000, "DIC_MES_OR": 0.000000, "KATO": "631010000", "Contacts": null }, "geometry": { "type": "Point", "coordinates": [ 82.651315156356659, 49.951027654160882 ] } },
{ "type": "Feature", "properties": { "name": "СПЧ-1", "staff": 122, "address": "г.Усть-Каменогорск, Ул. Протозанова 79\/1", "tech_base": 11, "tech_spec": 9, "tech_anc": 15, "KATO_obl": 630000000, "KATO_rai": 631010000, "region": 0, "district": 0, "USL": "00000023", "UNIT_ID": 408.000000, "DIC_MES_OR": 0.000000, "KATO": "631010000", "Contacts": null }, "geometry": { "type": "Point", "coordinates": [ 82.611984704260635, 49.951154329209466 ] } },
{ "type": "Feature", "properties": { "name": "УПЧ ШПП", "staff": 32, "address": "г.Усть-Каменогорск, ул. Крылова 86а", "tech_base": 2, "tech_spec": 0, "tech_anc": 1, "KATO_obl": 630000000, "KATO_rai": 631010000, "region": 0, "district": 0, "USL": "0", "UNIT_ID": 409.000000, "DIC_MES_OR": 0.000000, "KATO": "631010000", "Contacts": null }, "geometry": { "type": "Point", "coordinates": [ 82.608910946937797, 49.949236917609866 ] } },
{ "type": "Feature", "properties": { "name": "ПЧТС", "staff": 57, "address": "г.Усть-Каменогорск, ул. Бурова, 4", "tech_base": 0, "tech_spec": 2, "tech_anc": 39, "KATO_obl": 630000000, "KATO_rai": 631010000, "region": 0, "district": 0, "USL": "00000024", "UNIT_ID": 410.000000, "DIC_MES_OR": 0.000000, "KATO": "631010000", "Contacts": null }, "geometry": { "type": "Point", "coordinates": [ 82.63990471699023, 49.948378524507149 ] } },
{ "type": "Feature", "properties": { "name": "ОПС-2  - СПЧ-2", "staff": 82, "address": "г. Семей, ул. Дулатова 137,  ул. Интернациональная 18", "tech_base": 8, "tech_spec": 7, "tech_anc": 5, "KATO_obl": 630000000, "KATO_rai": 632810000, "region": 0, "district": 0, "USL": "00000024", "UNIT_ID": 411.000000, "DIC_MES_OR": 0.000000, "KATO": "632810000", "Contacts": null }, "geometry": { "type": "Point", "coordinates": [ 80.254589469787831, 50.408774017268819 ] } },
{ "type": "Feature", "properties": { "name": "ОПС-2 - ПЧ-46", "staff": 49, "address": "г. Семей, ул. Шугаева 162а", "tech_base": 8, "tech_spec": 0, "tech_anc": 6, "KATO_obl": 630000000, "KATO_rai": 632810000, "region": 0, "district": 0, "USL": "00000024", "UNIT_ID": 412.000000, "DIC_MES_OR": 0.000000, "KATO": "632810000", "Contacts": null }, "geometry": { "type": "Point", "coordinates": [ 80.232062156896546, 50.434593156934866 ] } },
{ "type": "Feature", "properties": { "name": "ОПС-2 - ПЧ-7", "staff": 52, "address": "г. Семей, ул. Бозтаева 1", "tech_base": 7, "tech_spec": 1, "tech_anc": 20, "KATO_obl": 630000000, "KATO_rai": 632810000, "region": 0, "district": 0, "USL": "00000024", "UNIT_ID": 413.000000, "DIC_MES_OR": 0.000000, "KATO": "632810000", "Contacts": null }, "geometry": { "type": "Point", "coordinates": [ 80.234923720471187, 50.38166720049739 ] } },
{ "type": "Feature", "properties": { "name": "ОПС-2 - ПЧ-45", "staff": 45, "address": "г. Семей, ул. Глинки 73", "tech_base": 7, "tech_spec": 1, "tech_anc": 2, "KATO_obl": 630000000, "KATO_rai": 632810000, "region": 0, "district": 0, "USL": "00000024", "UNIT_ID": 414.000000, "DIC_MES_OR": 0.000000, "KATO": "632810000", "Contacts": null }, "geometry": { "type": "Point", "coordinates": [ 80.199957709826819, 50.39836249052528 ] } },
{ "type": "Feature", "properties": { "name": "ОПС-2 - ОП", "staff": 17, "address": "г. Семей, ул. Краснознаменная 8", "tech_base": 2, "tech_spec": 0, "tech_anc": 1, "KATO_obl": 630000000, "KATO_rai": 632810000, "region": 0, "district": 0, "USL": "00000024", "UNIT_ID": 415.000000, "DIC_MES_OR": 0.000000, "KATO": "632810000", "Contacts": null }, "geometry": { "type": "Point", "coordinates": [ 80.259252688208107, 50.365609219490885 ] } },
{ "type": "Feature", "properties": { "name": "ОПС-2 - ПЧ-47", "staff": 20, "address": "г. Семей, п. Шульбинск 1мкр. 8", "tech_base": 4, "tech_spec": 0, "tech_anc": 1, "KATO_obl": 630000000, "KATO_rai": 632810000, "region": 0, "district": 0, "USL": "00000024", "UNIT_ID": 416.000000, "DIC_MES_OR": 0.000000, "KATO": "632865100", "Contacts": null }, "geometry": { "type": "Point", "coordinates": [ 81.065508215074232, 50.381825507870815 ] } },
{ "type": "Feature", "properties": { "name": "ОПС-2 - ОП ПЧ-46", "staff": 0, "address": "г. Семей, Жанасемейский филиал Подгороднее лесничество ГУ ГЛПР «Семей Орманы» квартал 174, выдел 14", "tech_base": 1, "tech_spec": 0, "tech_anc": 1, "KATO_obl": 630000000, "KATO_rai": 632810000, "region": 0, "district": 0, "USL": "00000024", "UNIT_ID": 417.000000, "DIC_MES_OR": 0.000000, "KATO": "632810000", "Contacts": null }, "geometry": { "type": "Point", "coordinates": [ 80.24425190902646, 50.457249461514721 ] } },
{ "type": "Feature", "properties": { "name": "ОПС-2 - ОП СПЧ-2", "staff": 18, "address": "г. Семей, ул. Кокжира 1а", "tech_base": 2, "tech_spec": 0, "tech_anc": 0, "KATO_obl": 630000000, "KATO_rai": 632810000, "region": 0, "district": 0, "USL": "00000024", "UNIT_ID": 418.000000, "DIC_MES_OR": 0.000000, "KATO": "632810000", "Contacts": null }, "geometry": { "type": "Point", "coordinates": [ 80.292186794121392, 50.432774296288585 ] } },
{ "type": "Feature", "properties": { "name": "ОП", "staff": 11, "address": "Зыряновский район, п. Зубовск, ул. Целинная 54", "tech_base": 2, "tech_spec": 0, "tech_anc": 0, "KATO_obl": 630000000, "KATO_rai": 634800000, "region": 0, "district": 0, "USL": "00000024", "UNIT_ID": 419.000000, "DIC_MES_OR": 0.000000, "KATO": "634837100", "Contacts": null }, "geometry": { "type": "Point", "coordinates": [ 84.266627088872823, 49.786995557449579 ] } },
{ "type": "Feature", "properties": { "name": "ПЧ-50", "staff": 27, "address": "Аягозский район, г. Аягуз, ул. Бигельдинова 18", "tech_base": 7, "tech_spec": 1, "tech_anc": 2, "KATO_obl": 630000000, "KATO_rai": 633400000, "region": 0, "district": 0, "USL": "00000024", "UNIT_ID": 422.000000, "DIC_MES_OR": 0.000000, "KATO": "631810000", "Contacts": null }, "geometry": { "type": "Point", "coordinates": [ 80.415880788783738, 47.964887123915481 ] } },
{ "type": "Feature", "properties": { "name": "ПЧ-54", "staff": 27, "address": "Бескарагайский район, с. Бескарагай, ул. Шакарима № 7", "tech_base": 7, "tech_spec": 0, "tech_anc": 5, "KATO_obl": 630000000, "KATO_rai": 633600000, "region": 0, "district": 0, "USL": "00000024", "UNIT_ID": 423.000000, "DIC_MES_OR": 0.000000, "KATO": "633630100", "Contacts": null }, "geometry": { "type": "Point", "coordinates": [ 79.488619809916273, 50.884167659485591 ] } },
{ "type": "Feature", "properties": { "name": "ПЧ-51", "staff": 30, "address": "Бородулихинский район, с.Бородулиха ул.Ф.Середина № 5", "tech_base": 3, "tech_spec": 0, "tech_anc": 2, "KATO_obl": 630000000, "KATO_rai": 633800000, "region": 0, "district": 0, "USL": "00000024", "UNIT_ID": 424.000000, "DIC_MES_OR": 0.000000, "KATO": "633830100", "Contacts": null }, "geometry": { "type": "Point", "coordinates": [ 80.930490828694786, 50.722296956215452 ] } },
{ "type": "Feature", "properties": { "name": "ПЧ-52", "staff": 14, "address": "Бородулихинский район, Больничный городок п.Жезкент.", "tech_base": 3, "tech_spec": 0, "tech_anc": 0, "KATO_obl": 630000000, "KATO_rai": 633800000, "region": 0, "district": 0, "USL": "00000024", "UNIT_ID": 425.000000, "DIC_MES_OR": 0.000000, "KATO": "633845100", "Contacts": null }, "geometry": { "type": "Point", "coordinates": [ 81.394904810753005, 50.916973406689948 ] } },
{ "type": "Feature", "properties": { "name": "ПЧ-23", "staff": 37, "address": "Глубоковский район, п. Глубокое ул. Пионерская 1", "tech_base": 2, "tech_spec": 0, "tech_anc": 2, "KATO_obl": 630000000, "KATO_rai": 634000000, "region": 0, "district": 0, "USL": "00000024", "UNIT_ID": 427.000000, "DIC_MES_OR": 0.000000, "KATO": "634030100", "Contacts": null }, "geometry": { "type": "Point", "coordinates": [ 82.296640502182044, 50.144669412266595 ] } },
{ "type": "Feature", "properties": { "name": "ПЧ-24", "staff": 31, "address": "Глубоковский район, п.Белоусовка ул. Промышленная, 11", "tech_base": 3, "tech_spec": 0, "tech_anc": 0, "KATO_obl": 630000000, "KATO_rai": 634000000, "region": 0, "district": 0, "USL": "00000024", "UNIT_ID": 428.000000, "DIC_MES_OR": 0.000000, "KATO": "634037100", "Contacts": null }, "geometry": { "type": "Point", "coordinates": [ 82.523795607005127, 50.130024739062911 ] } },
{ "type": "Feature", "properties": { "name": "ПЧ-25", "staff": 19, "address": "Глубоковский район, п.Алтайский ул. Мира-1", "tech_base": 2, "tech_spec": 0, "tech_anc": 0, "KATO_obl": 630000000, "KATO_rai": 634000000, "region": 0, "district": 0, "USL": "00000024", "UNIT_ID": 429.000000, "DIC_MES_OR": 0.000000, "KATO": "634033100", "Contacts": null }, "geometry": { "type": "Point", "coordinates": [ 82.369546521084615, 50.243102115555565 ] } },
{ "type": "Feature", "properties": { "name": "ПЧ-26", "staff": 19, "address": "Глубоковский район, п.Верх-Березовка", "tech_base": 3, "tech_spec": 0, "tech_anc": 0, "KATO_obl": 630000000, "KATO_rai": 634000000, "region": 0, "district": 0, "USL": "00000024", "UNIT_ID": 430.000000, "DIC_MES_OR": 0.000000, "KATO": "634045100", "Contacts": null }, "geometry": { "type": "Point", "coordinates": [ 82.222470362333539, 50.276416581338587 ] } },
{ "type": "Feature", "properties": { "name": "ОП", "staff": 11, "address": "Глубоковский район, с. Черемшанка Пер. Строителей 1", "tech_base": 2, "tech_spec": 0, "tech_anc": 0, "KATO_obl": 630000000, "KATO_rai": 634000000, "region": 0, "district": 0, "USL": "00000024", "UNIT_ID": 431.000000, "DIC_MES_OR": 0.000000, "KATO": "634069100", "Contacts": null }, "geometry": { "type": "Point", "coordinates": [ 83.032944739794971, 50.269260118085157 ] } },
{ "type": "Feature", "properties": { "name": "СПЧ-3", "staff": 44, "address": "г. Зыряновск, ул. З. Космодемьянской 13", "tech_base": 8, "tech_spec": 4, "tech_anc": 4, "KATO_obl": 630000000, "KATO_rai": 632010000, "region": 0, "district": 0, "USL": "00000023", "UNIT_ID": 432.000000, "DIC_MES_OR": 0.000000, "KATO": "632010000", "Contacts": null }, "geometry": { "type": "Point", "coordinates": [ 84.256409646339677, 49.733059209032525 ] } },
{ "type": "Feature", "properties": { "name": "ПЧ-62", "staff": 20, "address": "г. Зыряновск Промплощадка ЗГОК ТОО «Казцинк»", "tech_base": 2, "tech_spec": 0, "tech_anc": 0, "KATO_obl": 630000000, "KATO_rai": 632010000, "region": 0, "district": 0, "USL": "00000024", "UNIT_ID": 433.000000, "DIC_MES_OR": 0.000000, "KATO": "632010000", "Contacts": null }, "geometry": { "type": "Point", "coordinates": [ 84.281992068426845, 49.740333131594156 ] } },
{ "type": "Feature", "properties": { "name": "ОП", "staff": 11, "address": "г. Зыряновск Промплощадка Малеевского рудника ЗГОК ТОО «Казцинк»", "tech_base": 1, "tech_spec": 0, "tech_anc": 0, "KATO_obl": 630000000, "KATO_rai": 632010000, "region": 0, "district": 0, "USL": "00000024", "UNIT_ID": 434.000000, "DIC_MES_OR": 0.000000, "KATO": "632010000", "Contacts": null }, "geometry": { "type": "Point", "coordinates": [ 84.264495112717469, 49.741783201589875 ] } },
{ "type": "Feature", "properties": { "name": "ПЧ-55", "staff": 26, "address": "Жарминский район, с.Калбатау ул.Кабанбая 3", "tech_base": 4, "tech_spec": 0, "tech_anc": 8, "KATO_obl": 630000000, "KATO_rai": 634400000, "region": 0, "district": 0, "USL": "00000024", "UNIT_ID": 435.000000, "DIC_MES_OR": 0.000000, "KATO": "634430100", "Contacts": null }, "geometry": { "type": "Point", "coordinates": [ 81.579069417992116, 49.323912070912613 ] } },
{ "type": "Feature", "properties": { "name": "ОП", "staff": 14, "address": "Жарминский район, г.Шар ул.Алибасова 33", "tech_base": 4, "tech_spec": 0, "tech_anc": 0, "KATO_obl": 630000000, "KATO_rai": 634400000, "region": 0, "district": 0, "USL": "00000024", "UNIT_ID": 436.000000, "DIC_MES_OR": 0.000000, "KATO": "634421100", "Contacts": null }, "geometry": { "type": "Point", "coordinates": [ 81.049625539116931, 49.572260434470969 ] } },
{ "type": "Feature", "properties": { "name": "ОП", "staff": 14, "address": "Жарминский район, п.Ауэзова", "tech_base": 2, "tech_spec": 0, "tech_anc": 0, "KATO_obl": 630000000, "KATO_rai": 634400000, "region": 0, "district": 0, "USL": "00000024", "UNIT_ID": 437.000000, "DIC_MES_OR": 0.000000, "KATO": "634435100", "Contacts": null }, "geometry": { "type": "Point", "coordinates": [ 81.586811966883218, 49.710255876608883 ] } },
{ "type": "Feature", "properties": { "name": "ПЧ-43", "staff": 33, "address": "Зайсанский район, г..Зайсан ул.Манапова 21.", "tech_base": 6, "tech_spec": 0, "tech_anc": 2, "KATO_obl": 630000000, "KATO_rai": 634600000, "region": 0, "district": 0, "USL": "00000024", "UNIT_ID": 438.000000, "DIC_MES_OR": 0.000000, "KATO": "634620100", "Contacts": null }, "geometry": { "type": "Point", "coordinates": [ 84.900007792445564, 47.469454533574286 ] } },
{ "type": "Feature", "properties": { "name": "ПЧ-48", "staff": 32, "address": "г.Курчатов Тауелсздык 01\/02", "tech_base": 4, "tech_spec": 0, "tech_anc": 2, "KATO_obl": 550000000, "KATO_rai": 632210000, "region": 0, "district": 0, "USL": "00000024", "UNIT_ID": 441.000000, "DIC_MES_OR": 0.000000, "KATO": "632210000", "Contacts": null }, "geometry": { "type": "Point", "coordinates": [ 78.534343173875286, 50.766428520774788 ] } },
{ "type": "Feature", "properties": { "name": "ПЧ-61", "staff": 31, "address": "Обьект 300 г.Курчатов", "tech_base": 2, "tech_spec": 0, "tech_anc": 1, "KATO_obl": 550000000, "KATO_rai": 632210000, "region": 0, "district": 0, "USL": "00000024", "UNIT_ID": 442.000000, "DIC_MES_OR": 0.000000, "KATO": "632210000", "Contacts": null }, "geometry": { "type": "Point", "coordinates": [ 78.532317306721268, 50.759234999167987 ] } },
{ "type": "Feature", "properties": { "name": "СПЧ-4", "staff": 56, "address": "г. Риддер ул. Гоголя-6", "tech_base": 6, "tech_spec": 2, "tech_anc": 2, "KATO_obl": 630000000, "KATO_rai": 632410000, "region": 0, "district": 0, "USL": "00000023", "UNIT_ID": 444.000000, "DIC_MES_OR": 0.000000, "KATO": "632410000", "Contacts": null }, "geometry": { "type": "Point", "coordinates": [ 83.490116307301605, 50.335415221568134 ] } },
{ "type": "Feature", "properties": { "name": "ПЧ-14", "staff": 23, "address": "г. Риддер ПГТ Ульба ул. Дреймана-6", "tech_base": 2, "tech_spec": 0, "tech_anc": 1, "KATO_obl": 630000000, "KATO_rai": 632410000, "region": 0, "district": 0, "USL": "00000024", "UNIT_ID": 445.000000, "DIC_MES_OR": 0.000000, "KATO": "632431100", "Contacts": null }, "geometry": { "type": "Point", "coordinates": [ 83.375638979843572, 50.255839774622281 ] } },
{ "type": "Feature", "properties": { "name": "ПЧ-19", "staff": 48, "address": "Зыряновский район г.Серебрянск Коммунальная, 2", "tech_base": 5, "tech_spec": 1, "tech_anc": 4, "KATO_obl": 630000000, "KATO_rai": 634800000, "region": 0, "district": 0, "USL": "00000024", "UNIT_ID": 446.000000, "DIC_MES_OR": 0.000000, "KATO": "634821100", "Contacts": null }, "geometry": { "type": "Point", "coordinates": [ 83.297572474705333, 49.684217068199771 ] } },
{ "type": "Feature", "properties": { "name": "ПЧ-20", "staff": 27, "address": "Зыряновский район г.Серебрянск п. Октябрьск, территория АО «БЦК»", "tech_base": 3, "tech_spec": 0, "tech_anc": 1, "KATO_obl": 630000000, "KATO_rai": 634800000, "region": 0, "district": 0, "USL": "00000024", "UNIT_ID": 447.000000, "DIC_MES_OR": 0.000000, "KATO": "634841100", "Contacts": null }, "geometry": { "type": "Point", "coordinates": [ 83.583864408605606, 49.623379778203329 ] } },
{ "type": "Feature", "properties": { "name": "ОП БГЭК", "staff": 14, "address": "Зыряновский район г.Серебрянск, территория БГЭК", "tech_base": 1, "tech_spec": 0, "tech_anc": 0, "KATO_obl": 630000000, "KATO_rai": 634800000, "region": 0, "district": 0, "USL": "00000024", "UNIT_ID": 448.000000, "DIC_MES_OR": 0.000000, "KATO": "634821100", "Contacts": null }, "geometry": { "type": "Point", "coordinates": [ 83.309978979533554, 49.685630523847344 ] } },
{ "type": "Feature", "properties": { "name": "ПЧ-34", "staff": 31, "address": "Уланский район, пос. Молодежный ул. Жалын 10", "tech_base": 5, "tech_spec": 0, "tech_anc": 2, "KATO_obl": 630000000, "KATO_rai": 636200000, "region": 0, "district": 0, "USL": "00000024", "UNIT_ID": 449.000000, "DIC_MES_OR": 0.000000, "KATO": "636230100", "Contacts": null }, "geometry": { "type": "Point", "coordinates": [ 82.496248768817594, 49.875558944725817 ] } },
{ "type": "Feature", "properties": { "name": "ПЧ-31", "staff": 23, "address": "Уланский район, пос. Асубулак ул. Октябрская-4", "tech_base": 4, "tech_spec": 0, "tech_anc": 3, "KATO_obl": 630000000, "KATO_rai": 636200000, "region": 0, "district": 0, "USL": "00000024", "UNIT_ID": 450.000000, "DIC_MES_OR": 0.000000, "KATO": "636239100", "Contacts": null }, "geometry": { "type": "Point", "coordinates": [ 83.00303011319842, 49.534515014135465 ] } },
{ "type": "Feature", "properties": { "name": "ПЧ-38", "staff": 19, "address": "Уланский район, с. Таврическое ул. Молодежная-1а", "tech_base": 5, "tech_spec": 0, "tech_anc": 2, "KATO_obl": 630000000, "KATO_rai": 636200000, "region": 0, "district": 0, "USL": "00000024", "UNIT_ID": 451.000000, "DIC_MES_OR": 0.000000, "KATO": "636269100", "Contacts": null }, "geometry": { "type": "Point", "coordinates": [ 82.066683035456478, 50.174700005391884 ] } },
{ "type": "Feature", "properties": { "name": "ОП", "staff": 14, "address": "Уланский район, с. Бозанбай ул. Кайсенова 6", "tech_base": 4, "tech_spec": 0, "tech_anc": 2, "KATO_obl": 630000000, "KATO_rai": 636200000, "region": 0, "district": 0, "USL": "00000024", "UNIT_ID": 452.000000, "DIC_MES_OR": 0.000000, "KATO": "636257100", "Contacts": null }, "geometry": { "type": "Point", "coordinates": [ 82.408934237186742, 49.528937190759031 ] } },
{ "type": "Feature", "properties": { "name": "ПЧ-60", "staff": 22, "address": "Урджарский район с. Урджар ул. Молдагулова 10 а", "tech_base": 6, "tech_spec": 0, "tech_anc": 2, "KATO_obl": 630000000, "KATO_rai": 636400000, "region": 0, "district": 0, "USL": "00000024", "UNIT_ID": 453.000000, "DIC_MES_OR": 0.000000, "KATO": "636430100", "Contacts": null }, "geometry": { "type": "Point", "coordinates": [ 81.655389464369051, 47.080459793280887 ] } },
{ "type": "Feature", "properties": { "name": "ПЧ-15", "staff": 15, "address": "Урджарский район, с. Маканчи  ул. Ауезова 1", "tech_base": 2, "tech_spec": 0, "tech_anc": 2, "KATO_obl": 630000000, "KATO_rai": 636400000, "region": 0, "district": 0, "USL": "00000024", "UNIT_ID": 454.000000, "DIC_MES_OR": 0.000000, "KATO": "636473100", "Contacts": null }, "geometry": { "type": "Point", "coordinates": [ 82.028556278230468, 46.789646801023608 ] } },
{ "type": "Feature", "properties": { "name": "ПЧ-28", "staff": 42, "address": "Шемонаихинский район, г. Шемонаиха, ул. М. Горького, 97", "tech_base": 5, "tech_spec": 2, "tech_anc": 2, "KATO_obl": 630000000, "KATO_rai": 636800000, "region": 0, "district": 0, "USL": "00000024", "UNIT_ID": 455.000000, "DIC_MES_OR": 0.000000, "KATO": "636820100", "Contacts": null }, "geometry": { "type": "Point", "coordinates": [ 81.933222344124445, 50.623564924568868 ] } },
{ "type": "Feature", "properties": { "name": "ПЧ-29", "staff": 23, "address": "Шемонаихинский район, п. Первомайский, ул. Полевая, 1", "tech_base": 4, "tech_spec": 0, "tech_anc": 1, "KATO_obl": 630000000, "KATO_rai": 636800000, "region": 0, "district": 0, "USL": "00000024", "UNIT_ID": 456.000000, "DIC_MES_OR": 0.000000, "KATO": "636857100", "Contacts": null }, "geometry": { "type": "Point", "coordinates": [ 82.006398520568951, 50.261572608802489 ] } },
{ "type": "Feature", "properties": { "name": "ОП", "staff": 13, "address": "Шемонаихинский район, п. Усть-Таловка, ул. Комсомольская, 46", "tech_base": 2, "tech_spec": 0, "tech_anc": 0, "KATO_obl": 630000000, "KATO_rai": 636800000, "region": 0, "district": 0, "USL": "00000024", "UNIT_ID": 457.000000, "DIC_MES_OR": 0.000000, "KATO": "636863100", "Contacts": null }, "geometry": { "type": "Point", "coordinates": [ 81.853600309952014, 50.544546442033351 ] } },
{ "type": "Feature", "properties": { "name": "СНЗ", "staff": 14, "address": "Шемонаихинский район, с. Верх-Уба, ул. Ленина, 22", "tech_base": 3, "tech_spec": 0, "tech_anc": 0, "KATO_obl": 630000000, "KATO_rai": 636800000, "region": 0, "district": 0, "USL": "0", "UNIT_ID": 458.000000, "DIC_MES_OR": 0.000000, "KATO": "636841100", "Contacts": null }, "geometry": { "type": "Point", "coordinates": [ 82.418587039156506, 50.474696809445412 ] } },
{ "type": "Feature", "properties": { "name": "ПЧ-58", "staff": 23, "address": "Кокпектинский район, с. Кокпекты, ул. Саяхимова 2", "tech_base": 5, "tech_spec": 0, "tech_anc": 2, "KATO_obl": 630000000, "KATO_rai": 635000000, "region": 0, "district": 0, "USL": "00000024", "UNIT_ID": 459.000000, "DIC_MES_OR": 0.000000, "KATO": "635030100", "Contacts": null }, "geometry": { "type": "Point", "coordinates": [ 82.382713344697962, 48.763039736010377 ] } },
{ "type": "Feature", "properties": { "name": "ПЧ-35", "staff": 16, "address": "Кокпектинский район, с. Самарское, ул. Кирова 129", "tech_base": 5, "tech_spec": 0, "tech_anc": 3, "KATO_obl": 630000000, "KATO_rai": 635000000, "region": 0, "district": 0, "USL": "00000024", "UNIT_ID": 460.000000, "DIC_MES_OR": 0.000000, "KATO": "635063100", "Contacts": null }, "geometry": { "type": "Point", "coordinates": [ 83.367536561358065, 49.024788215046442 ] } },
{ "type": "Feature", "properties": { "name": "ПЧ-40", "staff": 24, "address": "Курчумский район с. Курчум ул. Лесникова 9", "tech_base": 5, "tech_spec": 0, "tech_anc": 2, "KATO_obl": 630000000, "KATO_rai": 635200000, "region": 0, "district": 0, "USL": "00000024", "UNIT_ID": 461.000000, "DIC_MES_OR": 0.000000, "KATO": "635230100", "Contacts": null }, "geometry": { "type": "Point", "coordinates": [ 83.670094203869624, 48.571411522066747 ] } },
{ "type": "Feature", "properties": { "name": "ПЧ-39", "staff": 20, "address": "Курчумский район с. Теректы ул. Малдыбаева 2", "tech_base": 4, "tech_spec": 0, "tech_anc": 2, "KATO_obl": 630000000, "KATO_rai": 635200000, "region": 0, "district": 0, "USL": "00000024", "UNIT_ID": 462.000000, "DIC_MES_OR": 0.000000, "KATO": "635235100", "Contacts": null }, "geometry": { "type": "Point", "coordinates": [ 85.744009056109945, 48.424760472634581 ] } },
{ "type": "Feature", "properties": { "name": "ОП", "staff": 14, "address": "Тарбагатайский район,с.Акжар ул.Курмангазы 1", "tech_base": 3, "tech_spec": 0, "tech_anc": 1, "KATO_obl": 630000000, "KATO_rai": 635800000, "region": 0, "district": 0, "USL": "00000024", "UNIT_ID": 463.000000, "DIC_MES_OR": 0.000000, "KATO": "635833100", "Contacts": null }, "geometry": { "type": "Point", "coordinates": [ 83.696778705198469, 47.58042486955685 ] } },
{ "type": "Feature", "properties": { "name": "ОП-42", "staff": 14, "address": "Тарбагатайский район с.Тугыл ул.Советская 36", "tech_base": 3, "tech_spec": 0, "tech_anc": 1, "KATO_obl": 630000000, "KATO_rai": 635800000, "region": 0, "district": 0, "USL": "00000024", "UNIT_ID": 464.000000, "DIC_MES_OR": 0.000000, "KATO": "635863100", "Contacts": null }, "geometry": { "type": "Point", "coordinates": [ 84.211624185460622, 47.727276846899159 ] } },
{ "type": "Feature", "properties": { "name": "ПЧ-59", "staff": 23, "address": "Тарбагатайский район с.Аксуат ул. Кабанбая, 45", "tech_base": 5, "tech_spec": 0, "tech_anc": 4, "KATO_obl": 630000000, "KATO_rai": 635800000, "region": 0, "district": 0, "USL": "00000024", "UNIT_ID": 465.000000, "DIC_MES_OR": 0.000000, "KATO": "635830100", "Contacts": null }, "geometry": { "type": "Point", "coordinates": [ 82.815801296829605, 47.758000086545984 ] } },
{ "type": "Feature", "properties": { "name": "СПЧ-1", "staff": 59, "address": "г. Тараз мкр. Каратау 42", "tech_base": 9, "tech_spec": 2, "tech_anc": 3, "KATO_obl": 310000000, "KATO_rai": 311010000, "region": 0, "district": 0, "USL": "00000023", "UNIT_ID": 466.000000, "DIC_MES_OR": 0.000000, "KATO": "311010000", "Contacts": null }, "geometry": { "type": "Point", "coordinates": [ 71.343783132718812, 42.892680303318343 ] } },
{ "type": "Feature", "properties": { "name": "ПЧТС-3", "staff": 20, "address": "г. Тараз ул.А.Аскарова 305", "tech_base": 9, "tech_spec": 2, "tech_anc": 10, "KATO_obl": 310000000, "KATO_rai": 311010000, "region": 0, "district": 0, "USL": "00000024", "UNIT_ID": 468.000000, "DIC_MES_OR": 0.000000, "KATO": "311010000", "Contacts": null }, "geometry": { "type": "Point", "coordinates": [ 71.362728389160182, 42.944861561383675 ] } },
{ "type": "Feature", "properties": { "name": "ПЧ-4", "staff": 39, "address": "г. Тараз ул. Тынышбаева 46", "tech_base": 2, "tech_spec": 0, "tech_anc": 1, "KATO_obl": 310000000, "KATO_rai": 311010000, "region": 0, "district": 0, "USL": "00000024", "UNIT_ID": 469.000000, "DIC_MES_OR": 0.000000, "KATO": "311010000", "Contacts": null }, "geometry": { "type": "Point", "coordinates": [ 71.373693027888763, 42.865627869525163 ] } },
{ "type": "Feature", "properties": { "name": "Учебный пункт", "staff": 2, "address": "г. Тараз мкр. Каратау 42", "tech_base": 1, "tech_spec": 0, "tech_anc": 0, "KATO_obl": 310000000, "KATO_rai": 311010000, "region": 0, "district": 0, "USL": "0", "UNIT_ID": 470.000000, "DIC_MES_OR": 0.000000, "KATO": "311010000", "Contacts": null }, "geometry": { "type": "Point", "coordinates": [ 71.34381154732958, 42.892708699100865 ] } },
{ "type": "Feature", "properties": { "name": "ПЧ-7", "staff": 20, "address": "Сарысуский район г. Жанатас мкр. 4", "tech_base": 4, "tech_spec": 0, "tech_anc": 0, "KATO_obl": 310000000, "KATO_rai": 316000000, "region": 0, "district": 0, "USL": "00000024", "UNIT_ID": 471.000000, "DIC_MES_OR": 0.000000, "KATO": "316020100", "Contacts": null }, "geometry": { "type": "Point", "coordinates": [ 69.710719745485079, 43.563337166467832 ] } },
{ "type": "Feature", "properties": { "name": "ПП-9", "staff": 10, "address": "Сарысуский район с.Саудакент ул.Сыздыкбайулы 1", "tech_base": 1, "tech_spec": 0, "tech_anc": 0, "KATO_obl": 310000000, "KATO_rai": 316000000, "region": 0, "district": 0, "USL": "00000024", "UNIT_ID": 472.000000, "DIC_MES_OR": 0.000000, "KATO": "316033100", "Contacts": null }, "geometry": { "type": "Point", "coordinates": [ 69.922817073021747, 43.732368359823695 ] } },
{ "type": "Feature", "properties": { "name": "ПЧ-8", "staff": 20, "address": "Талаский район г.Каратау ул.Колъцевая 1", "tech_base": 4, "tech_spec": 0, "tech_anc": 1, "KATO_obl": 310000000, "KATO_rai": 316200000, "region": 0, "district": 0, "USL": "00000024", "UNIT_ID": 473.000000, "DIC_MES_OR": 0.000000, "KATO": "316220100", "Contacts": null }, "geometry": { "type": "Point", "coordinates": [ 70.474479454536279, 43.167182396851061 ] } },
{ "type": "Feature", "properties": { "name": "ПП-5", "staff": 11, "address": "Талаский район с. Акколь ул.Токтарова 4", "tech_base": 2, "tech_spec": 0, "tech_anc": 0, "KATO_obl": 310000000, "KATO_rai": 316200000, "region": 0, "district": 0, "USL": "00000024", "UNIT_ID": 474.000000, "DIC_MES_OR": 0.000000, "KATO": "316231100", "Contacts": null }, "geometry": { "type": "Point", "coordinates": [ 70.770094929108566, 43.432462515147108 ] } },
{ "type": "Feature", "properties": { "name": "ПЧ-10", "staff": 26, "address": "Жамбылский район с.Аса ул.Абая 171", "tech_base": 4, "tech_spec": 0, "tech_anc": 1, "KATO_obl": 310000000, "KATO_rai": 314000000, "region": 0, "district": 0, "USL": "00000024", "UNIT_ID": 475.000000, "DIC_MES_OR": 0.000000, "KATO": "314030100", "Contacts": null }, "geometry": { "type": "Point", "coordinates": [ 71.152324738971942, 43.037095097187382 ] } },
{ "type": "Feature", "properties": { "name": "ПЧ-11", "staff": 27, "address": "Жуалинский район а. Б.Момышулы ул.Абая 1", "tech_base": 3, "tech_spec": 0, "tech_anc": 2, "KATO_obl": 310000000, "KATO_rai": 314200000, "region": 0, "district": 0, "USL": "00000024", "UNIT_ID": 476.000000, "DIC_MES_OR": 0.000000, "KATO": "314230100", "Contacts": null }, "geometry": { "type": "Point", "coordinates": [ 70.789023734702127, 42.623551121751767 ] } },
{ "type": "Feature", "properties": { "name": "ПП-6", "staff": 11, "address": "Жуалинский район с. Кольтоган ул. Д.Конаева 1а", "tech_base": 1, "tech_spec": 0, "tech_anc": 0, "KATO_obl": 310000000, "KATO_rai": 314200000, "region": 0, "district": 0, "USL": "00000024", "UNIT_ID": 477.000000, "DIC_MES_OR": 0.000000, "KATO": "314239100", "Contacts": null }, "geometry": { "type": "Point", "coordinates": [ 70.33973397651522, 42.739193517540286 ] } },
{ "type": "Feature", "properties": { "name": "ПЧ-12", "staff": 25, "address": "Байзакский район с.Сарыкемер ул. Байзакбатыра 139", "tech_base": 3, "tech_spec": 0, "tech_anc": 2, "KATO_obl": 310000000, "KATO_rai": 313600000, "region": 0, "district": 0, "USL": "00000024", "UNIT_ID": 478.000000, "DIC_MES_OR": 0.000000, "KATO": "313630100", "Contacts": null }, "geometry": { "type": "Point", "coordinates": [ 71.518047579688172, 43.008441555847114 ] } },
{ "type": "Feature", "properties": { "name": "ПЧ-13", "staff": 20, "address": "Кордайский район с. Кордай ул. Домалак-Ана 247", "tech_base": 3, "tech_spec": 0, "tech_anc": 1, "KATO_obl": 310000000, "KATO_rai": 314800000, "region": 0, "district": 0, "USL": "00000024", "UNIT_ID": 479.000000, "DIC_MES_OR": 0.000000, "KATO": "314830100", "Contacts": null }, "geometry": { "type": "Point", "coordinates": [ 74.720160031513544, 43.032216300711013 ] } },
{ "type": "Feature", "properties": { "name": "ПП-15", "staff": 11, "address": "Кордайский район с.Отар ул. Центральная", "tech_base": 2, "tech_spec": 0, "tech_anc": 0, "KATO_obl": 310000000, "KATO_rai": 314800000, "region": 0, "district": 0, "USL": "00000024", "UNIT_ID": 480.000000, "DIC_MES_OR": 0.000000, "KATO": "314851100", "Contacts": null }, "geometry": { "type": "Point", "coordinates": [ 75.216114896259811, 43.529981222591175 ] } },
{ "type": "Feature", "properties": { "name": "ПЧ-14", "staff": 25, "address": "Т.Рыскуловский район с.Кулан ул.Кудайберген-Датка 11", "tech_base": 4, "tech_spec": 0, "tech_anc": 2, "KATO_obl": 310000000, "KATO_rai": 315000000, "region": 0, "district": 0, "USL": "00000024", "UNIT_ID": 481.000000, "DIC_MES_OR": 0.000000, "KATO": "315030100", "Contacts": null }, "geometry": { "type": "Point", "coordinates": [ 72.713620933928127, 42.913179749434065 ] } },
{ "type": "Feature", "properties": { "name": "ПЧ-16", "staff": 24, "address": "Меркенский район с.Мерке ул. Омар-Ходжаева 5", "tech_base": 4, "tech_spec": 0, "tech_anc": 1, "KATO_obl": 310000000, "KATO_rai": 315400000, "region": 0, "district": 0, "USL": "00000024", "UNIT_ID": 482.000000, "DIC_MES_OR": 0.000000, "KATO": "315430100", "Contacts": null }, "geometry": { "type": "Point", "coordinates": [ 73.175852587462714, 42.863081427633887 ] } },
{ "type": "Feature", "properties": { "name": "ПЧ-17", "staff": 20, "address": "Мойынкумский район с.Мойынкум ул.Амангелъды 60", "tech_base": 3, "tech_spec": 0, "tech_anc": 1, "KATO_obl": 310000000, "KATO_rai": 315600000, "region": 0, "district": 0, "USL": "00000024", "UNIT_ID": 483.000000, "DIC_MES_OR": 0.000000, "KATO": "315630100", "Contacts": null }, "geometry": { "type": "Point", "coordinates": [ 72.94665575662755, 44.278164743669684 ] } },
{ "type": "Feature", "properties": { "name": "ПЧ-19", "staff": 19, "address": "Шуский район с.Толеби ул.Аубакирова 70", "tech_base": 4, "tech_spec": 0, "tech_anc": 1, "KATO_obl": 310000000, "KATO_rai": 316600000, "region": 0, "district": 0, "USL": "00000024", "UNIT_ID": 484.000000, "DIC_MES_OR": 0.000000, "KATO": "316630100", "Contacts": null }, "geometry": { "type": "Point", "coordinates": [ 73.770349509146428, 43.681880455533211 ] } },
{ "type": "Feature", "properties": { "name": "ПЧ-20", "staff": 23, "address": "Шуский район г.Шу ул. Сатпаева 153А", "tech_base": 2, "tech_spec": 0, "tech_anc": 0, "KATO_obl": 310000000, "KATO_rai": 316600000, "region": 0, "district": 0, "USL": "00000024", "UNIT_ID": 485.000000, "DIC_MES_OR": 0.000000, "KATO": "316621100", "Contacts": null }, "geometry": { "type": "Point", "coordinates": [ 73.76433928582226, 43.602919574673855 ] } },
{ "type": "Feature", "properties": { "name": "УП и АСР", "staff": 8, "address": "г. Уральск пр-т Достык-Дружба 215", "tech_base": 0, "tech_spec": 0, "tech_anc": 0, "KATO_obl": 270000000, "KATO_rai": 271010000, "region": 0, "district": 0, "USL": "0", "UNIT_ID": 486.000000, "DIC_MES_OR": 0.000000, "KATO": "271010000", "Contacts": null }, "geometry": { "type": "Point", "coordinates": [ 51.365069859316172, 51.215998592057069 ] } },
{ "type": "Feature", "properties": { "name": "СО", "staff": 58, "address": "г. Уральск ул. Гагарина 25\/1", "tech_base": 1, "tech_spec": 3, "tech_anc": 18, "KATO_obl": 270000000, "KATO_rai": 271010000, "region": 0, "district": 0, "USL": "00000025", "UNIT_ID": 487.000000, "DIC_MES_OR": 0.000000, "KATO": "271010000", "Contacts": null }, "geometry": { "type": "Point", "coordinates": [ 51.426580405683232, 51.227940666415627 ] } },
{ "type": "Feature", "properties": { "name": "ПЧ-2", "staff": 62, "address": "г. Уральск ул. К.Аманжолова 55", "tech_base": 4, "tech_spec": 1, "tech_anc": 1, "KATO_obl": 270000000, "KATO_rai": 271010000, "region": 0, "district": 0, "USL": "00000024", "UNIT_ID": 489.000000, "DIC_MES_OR": 0.000000, "KATO": "271010000", "Contacts": null }, "geometry": { "type": "Point", "coordinates": [ 51.374764814730597, 51.197846762808609 ] } },
{ "type": "Feature", "properties": { "name": "ПЧ-3", "staff": 51, "address": "г. Уральск ул.Неусыпова 9", "tech_base": 3, "tech_spec": 0, "tech_anc": 1, "KATO_obl": 270000000, "KATO_rai": 271010000, "region": 0, "district": 0, "USL": "00000024", "UNIT_ID": 490.000000, "DIC_MES_OR": 0.000000, "KATO": "271010000", "Contacts": null }, "geometry": { "type": "Point", "coordinates": [ 51.357742558461752, 51.204576764767403 ] } },
{ "type": "Feature", "properties": { "name": "ПЧ-4", "staff": 54, "address": "г. Уральск ул. Жангир хана 37\/1", "tech_base": 1, "tech_spec": 3, "tech_anc": 12, "KATO_obl": 270000000, "KATO_rai": 271010000, "region": 0, "district": 0, "USL": "00000024", "UNIT_ID": 491.000000, "DIC_MES_OR": 0.000000, "KATO": "271035100", "Contacts": null }, "geometry": { "type": "Point", "coordinates": [ 51.315279076403804, 51.181738726177748 ] } },
{ "type": "Feature", "properties": { "name": "СПЧ-5", "staff": 59, "address": "г. Уральск ул. Жангир хана 37\/1", "tech_base": 7, "tech_spec": 1, "tech_anc": 4, "KATO_obl": 270000000, "KATO_rai": 271010000, "region": 0, "district": 0, "USL": "00000023", "UNIT_ID": 492.000000, "DIC_MES_OR": 0.000000, "KATO": "271035100", "Contacts": null }, "geometry": { "type": "Point", "coordinates": [ 51.315442058644123, 51.181704412440119 ] } },
{ "type": "Feature", "properties": { "name": "ПЧ-6", "staff": 46, "address": "г. Уральск п.Деркул ул.Литейная", "tech_base": 2, "tech_spec": 0, "tech_anc": 0, "KATO_obl": 270000000, "KATO_rai": 271010000, "region": 0, "district": 0, "USL": "00000024", "UNIT_ID": 493.000000, "DIC_MES_OR": 0.000000, "KATO": "271033100", "Contacts": null }, "geometry": { "type": "Point", "coordinates": [ 51.302353510631406, 51.259965029868091 ] } },
{ "type": "Feature", "properties": { "name": "ПЧ-7", "staff": 31, "address": "г. Уральск п.Круглоозерное", "tech_base": 1, "tech_spec": 0, "tech_anc": 0, "KATO_obl": 270000000, "KATO_rai": 271010000, "region": 0, "district": 0, "USL": "00000024", "UNIT_ID": 494.000000, "DIC_MES_OR": 0.000000, "KATO": "271039100", "Contacts": null }, "geometry": { "type": "Point", "coordinates": [ 51.284984018674322, 51.080919171079209 ] } },
{ "type": "Feature", "properties": { "name": "ПЧ-8, ОП ПЧ-8", "staff": 68, "address": "Бурлинский район г. Аксай Вахтовый городок, промзона", "tech_base": 3, "tech_spec": 0, "tech_anc": 1, "KATO_obl": 270000000, "KATO_rai": 273600000, "region": 0, "district": 0, "USL": "00000024", "UNIT_ID": 495.000000, "DIC_MES_OR": 0.000000, "KATO": "273620100", "Contacts": null }, "geometry": { "type": "Point", "coordinates": [ 52.993626979081149, 51.180543170517836 ] } },
{ "type": "Feature", "properties": { "name": "ПЧ-9", "staff": 18, "address": "Бурлинский район п.Бурлин", "tech_base": 2, "tech_spec": 0, "tech_anc": 0, "KATO_obl": 270000000, "KATO_rai": 273600000, "region": 0, "district": 0, "USL": "00000024", "UNIT_ID": 496.000000, "DIC_MES_OR": 0.000000, "KATO": "273643100", "Contacts": null }, "geometry": { "type": "Point", "coordinates": [ 52.720608222137315, 51.432498266627057 ] } },
{ "type": "Feature", "properties": { "name": "ПЧ-12", "staff": 15, "address": "Сырымский район п.Жымпиты", "tech_base": 4, "tech_spec": 0, "tech_anc": 1, "KATO_obl": 270000000, "KATO_rai": 275800000, "region": 0, "district": 0, "USL": "00000024", "UNIT_ID": 497.000000, "DIC_MES_OR": 0.000000, "KATO": "275830100", "Contacts": null }, "geometry": { "type": "Point", "coordinates": [ 52.598073155701123, 50.25548724403388 ] } },
{ "type": "Feature", "properties": { "name": "ПЧ-13", "staff": 15, "address": "Таскалинский район п.Таскала", "tech_base": 3, "tech_spec": 0, "tech_anc": 0, "KATO_obl": 270000000, "KATO_rai": 276000000, "region": 0, "district": 0, "USL": "00000024", "UNIT_ID": 498.000000, "DIC_MES_OR": 0.000000, "KATO": "276030100", "Contacts": null }, "geometry": { "type": "Point", "coordinates": [ 50.296357263235997, 51.115925964114631 ] } },
{ "type": "Feature", "properties": { "name": "ПЧ-14", "staff": 16, "address": "Жангалинский район п.Жангала", "tech_base": 3, "tech_spec": 0, "tech_anc": 1, "KATO_obl": 270000000, "KATO_rai": 274000000, "region": 0, "district": 0, "USL": "00000024", "UNIT_ID": 499.000000, "DIC_MES_OR": 0.000000, "KATO": "274030100", "Contacts": null }, "geometry": { "type": "Point", "coordinates": [ 50.315878039737193, 49.208033435410258 ] } },
{ "type": "Feature", "properties": { "name": "ПЧ-15", "staff": 11, "address": "Казталовский район п.Жалпактал", "tech_base": 3, "tech_spec": 0, "tech_anc": 1, "KATO_obl": 270000000, "KATO_rai": 274800000, "region": 0, "district": 0, "USL": "00000024", "UNIT_ID": 500.000000, "DIC_MES_OR": 0.000000, "KATO": "274843100", "Contacts": null }, "geometry": { "type": "Point", "coordinates": [ 49.480915574155937, 49.664979192304571 ] } },
{ "type": "Feature", "properties": { "name": "ПЧ-16", "staff": 16, "address": "Каратобинский район п.Каратобе", "tech_base": 2, "tech_spec": 0, "tech_anc": 0, "KATO_obl": 270000000, "KATO_rai": 275000000, "region": 0, "district": 0, "USL": "00000024", "UNIT_ID": 501.000000, "DIC_MES_OR": 0.000000, "KATO": "275030100", "Contacts": null }, "geometry": { "type": "Point", "coordinates": [ 53.504148159110073, 49.682624437044694 ] } },
{ "type": "Feature", "properties": { "name": "ПЧ-17", "staff": 16, "address": "Бокейординский район п.Сайхин", "tech_base": 3, "tech_spec": 0, "tech_anc": 0, "KATO_obl": 270000000, "KATO_rai": 275400000, "region": 0, "district": 0, "USL": "00000024", "UNIT_ID": 502.000000, "DIC_MES_OR": 0.000000, "KATO": "275430100", "Contacts": null }, "geometry": { "type": "Point", "coordinates": [ 46.757118194745701, 48.812970502451847 ] } },
{ "type": "Feature", "properties": { "name": "ПЧ-10", "staff": 19, "address": "Каргалинский район, с. Бадамша, ул. Пацаева 7", "tech_base": 2, "tech_spec": 0, "tech_anc": 1, "KATO_obl": 150000000, "KATO_rai": 154000000, "region": 0, "district": 0, "USL": "00000024", "UNIT_ID": 346.000000, "DIC_MES_OR": 0.000000, "KATO": "154030100", "Contacts": null }, "geometry": { "type": "Point", "coordinates": [ 58.278518734403022, 50.55487545458918 ] } },
{ "type": "Feature", "properties": { "name": "НЗ Склад", "staff": 8, "address": "Алгинский район, г. Алга", "tech_base": 0, "tech_spec": 0, "tech_anc": 0, "KATO_obl": 150000000, "KATO_rai": 153200000, "region": 0, "district": 0, "USL": "0", "UNIT_ID": 0.000000, "DIC_MES_OR": 0.000000, "KATO": "153220100", "Contacts": null }, "geometry": { "type": "Point", "coordinates": [ 57.33172175169198, 49.893646062938998 ] } },
{ "type": "Feature", "properties": { "name": "СПЧ-11", "staff": 48, "address": "г. Алматы ул. Суюнбая 247", "tech_base": 4, "tech_spec": 1, "tech_anc": 1, "KATO_obl": 751000000, "KATO_rai": 751910000, "region": 0, "district": 0, "USL": "00000023", "UNIT_ID": 0.000000, "DIC_MES_OR": 0.000000, "KATO": "750000000", "Contacts": null }, "geometry": { "type": "Point", "coordinates": [ 76.959077097374376, 43.321180930554767 ] } },
{ "type": "Feature", "properties": { "name": "ПЧ-13", "staff": 50, "address": "г. Алматы, ул. Карпатская 16", "tech_base": 0, "tech_spec": 0, "tech_anc": 0, "KATO_obl": 751000000, "KATO_rai": 751310000, "region": 0, "district": 0, "USL": "00000024", "UNIT_ID": 0.000000, "DIC_MES_OR": 0.000000, "KATO": "750000000", "Contacts": null }, "geometry": { "type": "Point", "coordinates": [ 76.849014613143709, 43.253110504394513 ] } },
{ "type": "Feature", "properties": { "name": "СПЧ-1", "staff": 57, "address": "г. Атырау ул. Баймуханова 54а", "tech_base": 5, "tech_spec": 4, "tech_anc": 1, "KATO_obl": 230000000, "KATO_rai": 231010000, "region": 0, "district": 0, "USL": "00000023", "UNIT_ID": 0.000000, "DIC_MES_OR": 0.000000, "KATO": "231010000", "Contacts": null }, "geometry": { "type": "Point", "coordinates": [ 51.949492796722637, 47.132268174120881 ] } },
{ "type": "Feature", "properties": { "name": "СПЧ-2", "staff": 30, "address": "Жылыойский район, пос. Жана-Каратон", "tech_base": 2, "tech_spec": 0, "tech_anc": 1, "KATO_obl": 230000000, "KATO_rai": 233600000, "region": 0, "district": 0, "USL": "00000023", "UNIT_ID": 0.000000, "DIC_MES_OR": 0.000000, "KATO": "233639100", "Contacts": null }, "geometry": { "type": "Point", "coordinates": [ 53.486705269404375, 46.435117439748595 ] } },
{ "type": "Feature", "properties": { "name": "Отряд г.Атырау", "staff": 5, "address": "г. Атырау, ул. Гагарина,33", "tech_base": 0, "tech_spec": 0, "tech_anc": 1, "KATO_obl": 230000000, "KATO_rai": 231010000, "region": 0, "district": 0, "USL": "0", "UNIT_ID": 0.000000, "DIC_MES_OR": 0.000000, "KATO": "231010000", "Contacts": null }, "geometry": { "type": "Point", "coordinates": [ 51.908649013952882, 47.112836882673136 ] } },
{ "type": "Feature", "properties": { "name": "ПЧ-1", "staff": 39, "address": "г. Атырау, ул. Гагарина,33", "tech_base": 4, "tech_spec": 2, "tech_anc": 1, "KATO_obl": 230000000, "KATO_rai": 231010000, "region": 0, "district": 0, "USL": "00000024", "UNIT_ID": 0.000000, "DIC_MES_OR": 0.000000, "KATO": "231010000", "Contacts": null }, "geometry": { "type": "Point", "coordinates": [ 51.908519206496038, 47.112827008685493 ] } },
{ "type": "Feature", "properties": { "name": "ПЧТС-3", "staff": 20, "address": "г. Атырау, ул. Гагарина,33", "tech_base": 0, "tech_spec": 2, "tech_anc": 7, "KATO_obl": 230000000, "KATO_rai": 231010000, "region": 0, "district": 0, "USL": "00000024", "UNIT_ID": 0.000000, "DIC_MES_OR": 0.000000, "KATO": "231010000", "Contacts": null }, "geometry": { "type": "Point", "coordinates": [ 51.908739777034249, 47.112830656027072 ] } },
{ "type": "Feature", "properties": { "name": "ПЧ-2", "staff": 35, "address": "г. Атырау  ул. Бейбитшилик 90", "tech_base": 3, "tech_spec": 0, "tech_anc": 0, "KATO_obl": 230000000, "KATO_rai": 231010000, "region": 0, "district": 0, "USL": "00000024", "UNIT_ID": 0.000000, "DIC_MES_OR": 0.000000, "KATO": "231010000", "Contacts": null }, "geometry": { "type": "Point", "coordinates": [ 51.873530380440087, 47.074819410237033 ] } },
{ "type": "Feature", "properties": { "name": "ПЧ-4", "staff": 29, "address": "Махамбетский район, с. Махамбет, ул. Наурзбая 2", "tech_base": 4, "tech_spec": 0, "tech_anc": 1, "KATO_obl": 230000000, "KATO_rai": 235600000, "region": 0, "district": 0, "USL": "00000024", "UNIT_ID": 0.000000, "DIC_MES_OR": 0.000000, "KATO": "235630100", "Contacts": null }, "geometry": { "type": "Point", "coordinates": [ 51.593692452885719, 47.677823047406122 ] } },
{ "type": "Feature", "properties": { "name": "ПЧ-5", "staff": 29, "address": "Индерский район, пос. Индер, участок-3", "tech_base": 2, "tech_spec": 0, "tech_anc": 1, "KATO_obl": 230000000, "KATO_rai": 234000000, "region": 0, "district": 0, "USL": "00000024", "UNIT_ID": 0.000000, "DIC_MES_OR": 0.000000, "KATO": "234030100", "Contacts": null }, "geometry": { "type": "Point", "coordinates": [ 51.732822381433103, 48.55696568858685 ] } },
{ "type": "Feature", "properties": { "name": "ПЧ-6", "staff": 28, "address": "Исатайский район, с. Аккистау ул. Сарыарка-1", "tech_base": 3, "tech_spec": 0, "tech_anc": 2, "KATO_obl": 230000000, "KATO_rai": 234200000, "region": 0, "district": 0, "USL": "00000024", "UNIT_ID": 0.000000, "DIC_MES_OR": 0.000000, "KATO": "234230100", "Contacts": null }, "geometry": { "type": "Point", "coordinates": [ 51.013885663975202, 47.227822236546274 ] } },
{ "type": "Feature", "properties": { "name": "ПЧ-7", "staff": 33, "address": "Курмангазинский район,  с. Ганюшкино, ул.Абая-2", "tech_base": 5, "tech_spec": 0, "tech_anc": 2, "KATO_obl": 230000000, "KATO_rai": 234600000, "region": 0, "district": 0, "USL": "00000024", "UNIT_ID": 0.000000, "DIC_MES_OR": 0.000000, "KATO": "234630100", "Contacts": null }, "geometry": { "type": "Point", "coordinates": [ 49.274607318195194, 46.604639093781287 ] } },
{ "type": "Feature", "properties": { "name": "ПЧ-8", "staff": 27, "address": "Макатский район, с.Макат, ул.60 летия газеты «Мунайшы»", "tech_base": 3, "tech_spec": 0, "tech_anc": 0, "KATO_obl": 230000000, "KATO_rai": 235200000, "region": 0, "district": 0, "USL": "00000024", "UNIT_ID": 0.000000, "DIC_MES_OR": 0.000000, "KATO": "235230100", "Contacts": null }, "geometry": { "type": "Point", "coordinates": [ 53.338340130628545, 47.643490372265468 ] } },
{ "type": "Feature", "properties": { "name": "ПЧ-9", "staff": 32, "address": "Жылыойский район. Кульсары, 6-ой ауыл", "tech_base": 5, "tech_spec": 0, "tech_anc": 1, "KATO_obl": 230000000, "KATO_rai": 233600000, "region": 0, "district": 0, "USL": "00000024", "UNIT_ID": 0.000000, "DIC_MES_OR": 0.000000, "KATO": "233620100", "Contacts": null }, "geometry": { "type": "Point", "coordinates": [ 54.025271527413395, 46.949127294678163 ] } },
{ "type": "Feature", "properties": { "name": "ПЧ-10", "staff": 28, "address": "Кызылкогинский район, пос. Миялы, ул. Жангельдина-1", "tech_base": 2, "tech_spec": 1, "tech_anc": 1, "KATO_obl": 230000000, "KATO_rai": 234800000, "region": 0, "district": 0, "USL": "00000024", "UNIT_ID": 0.000000, "DIC_MES_OR": 0.000000, "KATO": "234830100", "Contacts": null }, "geometry": { "type": "Point", "coordinates": [ 53.790573582661551, 48.88867337727676 ] } },
{ "type": "Feature", "properties": { "name": "ОПП с.Сагиз", "staff": 13, "address": "Кызылкогинский район, с. Сагиз", "tech_base": 2, "tech_spec": 1, "tech_anc": 1, "KATO_obl": 230000000, "KATO_rai": 234800000, "region": 0, "district": 0, "USL": "0", "UNIT_ID": 0.000000, "DIC_MES_OR": 0.000000, "KATO": "234853100", "Contacts": null }, "geometry": { "type": "Point", "coordinates": [ 54.883950835222215, 48.230406127188409 ] } },
{ "type": "Feature", "properties": { "name": "В резерве", "staff": 0, "address": "г.Атырау", "tech_base": 2, "tech_spec": 1, "tech_anc": 0, "KATO_obl": 230000000, "KATO_rai": 231010000, "region": 0, "district": 0, "USL": "0", "UNIT_ID": 0.000000, "DIC_MES_OR": 0.000000, "KATO": "231010000", "Contacts": null }, "geometry": { "type": "Point", "coordinates": [ 51.929906229406711, 47.102413582729348 ] } },
{ "type": "Feature", "properties": { "name": "ОП", "staff": 11, "address": "Зыряновский район, с. Парыгино, ул. Победы 2", "tech_base": 2, "tech_spec": 0, "tech_anc": 0, "KATO_obl": 630000000, "KATO_rai": 634800000, "region": 0, "district": 0, "USL": "00000024", "UNIT_ID": 420.000000, "DIC_MES_OR": 0.000000, "KATO": "634845100", "Contacts": null }, "geometry": { "type": "Point", "coordinates": [ 84.120379117524919, 49.80617894579045 ] } },
{ "type": "Feature", "properties": { "name": "ПЧ-49", "staff": 15, "address": "Абайский район, с.Караул ул.Бекбосынова, 51", "tech_base": 4, "tech_spec": 0, "tech_anc": 1, "KATO_obl": 630000000, "KATO_rai": 633200000, "region": 0, "district": 0, "USL": "00000024", "UNIT_ID": 421.000000, "DIC_MES_OR": 0.000000, "KATO": "633230100", "Contacts": null }, "geometry": { "type": "Point", "coordinates": [ 79.25655349775559, 48.946610772470507 ] } },
{ "type": "Feature", "properties": { "name": "ОП", "staff": 14, "address": "Бородулихинский район, с.Новая-Шульба. ул.Ленина 38", "tech_base": 3, "tech_spec": 0, "tech_anc": 1, "KATO_obl": 630000000, "KATO_rai": 633800000, "region": 0, "district": 0, "USL": "00000024", "UNIT_ID": 426.000000, "DIC_MES_OR": 0.000000, "KATO": "633873100", "Contacts": null }, "geometry": { "type": "Point", "coordinates": [ 81.330061411375581, 50.53884914707907 ] } },
{ "type": "Feature", "properties": { "name": "ПЧ-36", "staff": 22, "address": "Катон-Карагайский район с.Улкен Нарын ул.Амангельды,79", "tech_base": 4, "tech_spec": 0, "tech_anc": 3, "KATO_obl": 630000000, "KATO_rai": 635400000, "region": 0, "district": 0, "USL": "00000024", "UNIT_ID": 439.000000, "DIC_MES_OR": 0.000000, "KATO": "635430100", "Contacts": null }, "geometry": { "type": "Point", "coordinates": [ 84.501434200491246, 49.210670576147756 ] } },
{ "type": "Feature", "properties": { "name": "ПЧ-37", "staff": 21, "address": "Катон-Карагайский район с.Катон-Карагай ул.Торайгырова,3", "tech_base": 4, "tech_spec": 0, "tech_anc": 1, "KATO_obl": 630000000, "KATO_rai": 635400000, "region": 0, "district": 0, "USL": "00000024", "UNIT_ID": 440.000000, "DIC_MES_OR": 0.000000, "KATO": "635443100", "Contacts": null }, "geometry": { "type": "Point", "coordinates": [ 85.607603789684546, 49.173213952530247 ] } },
{ "type": "Feature", "properties": { "name": "Пч-61", "staff": 14, "address": "Обьект 100 г. Курчатов", "tech_base": 3, "tech_spec": 0, "tech_anc": 0, "KATO_obl": 550000000, "KATO_rai": 632210000, "region": 0, "district": 0, "USL": "00000024", "UNIT_ID": 0.000000, "DIC_MES_OR": 0.000000, "KATO": "632210000", "Contacts": null }, "geometry": { "type": "Point", "coordinates": [ 78.532425944480181, 50.759288043631038 ] } },
{ "type": "Feature", "properties": { "name": "ПТЦ", "staff": 1, "address": "г. Тараз ул. Абая 94", "tech_base": 0, "tech_spec": 0, "tech_anc": 0, "KATO_obl": 310000000, "KATO_rai": 311010000, "region": 0, "district": 0, "USL": "00000024", "UNIT_ID": 0.000000, "DIC_MES_OR": 0.000000, "KATO": "311010000", "Contacts": null }, "geometry": { "type": "Point", "coordinates": [ 71.38642182398641, 42.907762866283598 ] } },
{ "type": "Feature", "properties": { "name": "СПЧ-1", "staff": 62, "address": "г. Уральск ул. Гагарина 25", "tech_base": 6, "tech_spec": 2, "tech_anc": 2, "KATO_obl": 270000000, "KATO_rai": 271010000, "region": 0, "district": 0, "USL": "00000023", "UNIT_ID": 0.000000, "DIC_MES_OR": 0.000000, "KATO": "271010000", "Contacts": null }, "geometry": { "type": "Point", "coordinates": [ 51.427541105370587, 51.227616770799742 ] } },
{ "type": "Feature", "properties": { "name": "ПЧ-18", "staff": 13, "address": "Акжаикский район п.Тайпак", "tech_base": 3, "tech_spec": 0, "tech_anc": 1, "KATO_obl": 270000000, "KATO_rai": 273200000, "region": 0, "district": 0, "USL": "00000024", "UNIT_ID": 503.000000, "DIC_MES_OR": 0.000000, "KATO": "273273100", "Contacts": null }, "geometry": { "type": "Point", "coordinates": [ 51.834499864139325, 49.028158267186136 ] } },
{ "type": "Feature", "properties": { "name": "ПЧ-24", "staff": 26, "address": "Акжаикский район  п.Чапаево", "tech_base": 4, "tech_spec": 0, "tech_anc": 1, "KATO_obl": 270000000, "KATO_rai": 273200000, "region": 0, "district": 0, "USL": "00000024", "UNIT_ID": 504.000000, "DIC_MES_OR": 0.000000, "KATO": "273230100", "Contacts": null }, "geometry": { "type": "Point", "coordinates": [ 51.185697353587734, 50.182113152480852 ] } },
{ "type": "Feature", "properties": { "name": "ПЧ-30", "staff": 10, "address": "Акжаикский район п.Караултобе", "tech_base": 2, "tech_spec": 0, "tech_anc": 0, "KATO_obl": 270000000, "KATO_rai": 273200000, "region": 0, "district": 0, "USL": "00000024", "UNIT_ID": 505.000000, "DIC_MES_OR": 0.000000, "KATO": "273263100", "Contacts": null }, "geometry": { "type": "Point", "coordinates": [ 51.612464418020537, 49.623255327947014 ] } },
{ "type": "Feature", "properties": { "name": "ПЧ-19", "staff": 15, "address": "Казталовский район п.Казталовка", "tech_base": 4, "tech_spec": 0, "tech_anc": 1, "KATO_obl": 270000000, "KATO_rai": 274800000, "region": 0, "district": 0, "USL": "00000024", "UNIT_ID": 506.000000, "DIC_MES_OR": 0.000000, "KATO": "274830100", "Contacts": null }, "geometry": { "type": "Point", "coordinates": [ 48.693973965137253, 49.763517485546018 ] } },
{ "type": "Feature", "properties": { "name": "ПЧ-20", "staff": 16, "address": "Жаныбекский район п.Жаныбек", "tech_base": 3, "tech_spec": 0, "tech_anc": 0, "KATO_obl": 270000000, "KATO_rai": 274200000, "region": 0, "district": 0, "USL": "00000024", "UNIT_ID": 507.000000, "DIC_MES_OR": 0.000000, "KATO": "274230100", "Contacts": null }, "geometry": { "type": "Point", "coordinates": [ 46.860603548639325, 49.411730622300752 ] } },
{ "type": "Feature", "properties": { "name": "ПЧ-21", "staff": 12, "address": "Зеленовский район  п.Дарьинск", "tech_base": 3, "tech_spec": 0, "tech_anc": 0, "KATO_obl": 270000000, "KATO_rai": 274400000, "region": 0, "district": 0, "USL": "00000024", "UNIT_ID": 508.000000, "DIC_MES_OR": 0.000000, "KATO": "274431100", "Contacts": null }, "geometry": { "type": "Point", "coordinates": [ 51.757509502083899, 51.352539597731777 ] } },
{ "type": "Feature", "properties": { "name": "ПЧ-25", "staff": 16, "address": "Зеленовский район п.Переметное", "tech_base": 2, "tech_spec": 0, "tech_anc": 0, "KATO_obl": 270000000, "KATO_rai": 274400000, "region": 0, "district": 0, "USL": "00000024", "UNIT_ID": 509.000000, "DIC_MES_OR": 0.000000, "KATO": "274430100", "Contacts": null }, "geometry": { "type": "Point", "coordinates": [ 50.852425980932139, 51.202154250242216 ] } },
{ "type": "Feature", "properties": { "name": "ПЧ-22", "staff": 16, "address": "Чингирлауский район  п.Чингирлау", "tech_base": 2, "tech_spec": 0, "tech_anc": 0, "KATO_obl": 270000000, "KATO_rai": 276600000, "region": 0, "district": 0, "USL": "00000024", "UNIT_ID": 510.000000, "DIC_MES_OR": 0.000000, "KATO": "276630100", "Contacts": null }, "geometry": { "type": "Point", "coordinates": [ 54.091904771485403, 51.105110634944062 ] } },
{ "type": "Feature", "properties": { "name": "ПЧ-23", "staff": 17, "address": "Теректинский район п.Федоровка", "tech_base": 3, "tech_spec": 0, "tech_anc": 1, "KATO_obl": 270000000, "KATO_rai": 276200000, "region": 0, "district": 0, "USL": "00000024", "UNIT_ID": 511.000000, "DIC_MES_OR": 0.000000, "KATO": "276230100", "Contacts": null }, "geometry": { "type": "Point", "coordinates": [ 51.96785826880155, 51.222399493601067 ] } },
{ "type": "Feature", "properties": { "name": "ПЧ-27", "staff": 15, "address": "Теректинский район п.Енбек", "tech_base": 2, "tech_spec": 0, "tech_anc": 1, "KATO_obl": 270000000, "KATO_rai": 276200000, "region": 0, "district": 0, "USL": "00000024", "UNIT_ID": 512.000000, "DIC_MES_OR": 0.000000, "KATO": "276235400", "Contacts": null }, "geometry": { "type": "Point", "coordinates": [ 51.244493509169835, 50.668743143291358 ] } },
{ "type": "Feature", "properties": { "name": "ПЧ-29", "staff": 10, "address": "Бокейординский район п.Орда", "tech_base": 2, "tech_spec": 0, "tech_anc": 0, "KATO_obl": 270000000, "KATO_rai": 275400000, "region": 0, "district": 0, "USL": "00000024", "UNIT_ID": 513.000000, "DIC_MES_OR": 0.000000, "KATO": "275443100", "Contacts": null }, "geometry": { "type": "Point", "coordinates": [ 47.431013239229081, 48.769723649793463 ] } },
{ "type": "Feature", "properties": { "name": "ИЛ", "staff": 5, "address": "г. Караганда ул. Белинского 17 \"б\"", "tech_base": 0, "tech_spec": 0, "tech_anc": 1, "KATO_obl": 350000000, "KATO_rai": 351010000, "region": 0, "district": 0, "USL": "0", "UNIT_ID": 515.000000, "DIC_MES_OR": 0.000000, "KATO": "351010000", "Contacts": null }, "geometry": { "type": "Point", "coordinates": [ 73.200883921869121, 49.877520735148785 ] } },
{ "type": "Feature", "properties": { "name": "ПЧ-2", "staff": 90, "address": "г. Караганда ул. Белинского 17 \"б\"", "tech_base": 5, "tech_spec": 1, "tech_anc": 2, "KATO_obl": 350000000, "KATO_rai": 351010000, "region": 0, "district": 0, "USL": "00000024", "UNIT_ID": 516.000000, "DIC_MES_OR": 0.000000, "KATO": "351010000", "Contacts": null }, "geometry": { "type": "Point", "coordinates": [ 73.200855608767995, 49.877465960011548 ] } },
{ "type": "Feature", "properties": { "name": "Склады имущества", "staff": 18, "address": "г. Караганда Северная промзона", "tech_base": 0, "tech_spec": 0, "tech_anc": 1, "KATO_obl": 350000000, "KATO_rai": 351010000, "region": 0, "district": 0, "USL": "0", "UNIT_ID": 517.000000, "DIC_MES_OR": 0.000000, "KATO": "351010000", "Contacts": null }, "geometry": { "type": "Point", "coordinates": [ 73.216598851820166, 49.900083788586471 ] } },
{ "type": "Feature", "properties": { "name": "ПЧТС-8", "staff": 43, "address": "г. Караганда Северная промзона", "tech_base": 10, "tech_spec": 1, "tech_anc": 30, "KATO_obl": 350000000, "KATO_rai": 351010000, "region": 0, "district": 0, "USL": "00000024", "UNIT_ID": 518.000000, "DIC_MES_OR": 0.000000, "KATO": "351010000", "Contacts": null }, "geometry": { "type": "Point", "coordinates": [ 73.216683181167454, 49.900007230639169 ] } },
{ "type": "Feature", "properties": { "name": "СО", "staff": 108, "address": "г. Караганда ул. Муканова 43", "tech_base": 8, "tech_spec": 6, "tech_anc": 5, "KATO_obl": 350000000, "KATO_rai": 351010000, "region": 0, "district": 0, "USL": "00000025", "UNIT_ID": 519.000000, "DIC_MES_OR": 0.000000, "KATO": "351010000", "Contacts": null }, "geometry": { "type": "Point", "coordinates": [ 73.15979651599433, 49.779640923070374 ] } },
{ "type": "Feature", "properties": { "name": "ПЧ-15", "staff": 80, "address": "г. Караганда ул. Широкая 1", "tech_base": 6, "tech_spec": 1, "tech_anc": 3, "KATO_obl": 350000000, "KATO_rai": 351010000, "region": 0, "district": 0, "USL": "00000024", "UNIT_ID": 522.000000, "DIC_MES_OR": 0.000000, "KATO": "351010000", "Contacts": null }, "geometry": { "type": "Point", "coordinates": [ 73.084478412756042, 49.893839172616545 ] } },
{ "type": "Feature", "properties": { "name": "ПЧ-16", "staff": 50, "address": "г. Караганда п. Сортировка ул. Менделева 47", "tech_base": 6, "tech_spec": 1, "tech_anc": 2, "KATO_obl": 350000000, "KATO_rai": 351010000, "region": 0, "district": 0, "USL": "00000024", "UNIT_ID": 523.000000, "DIC_MES_OR": 0.000000, "KATO": "351010000", "Contacts": null }, "geometry": { "type": "Point", "coordinates": [ 73.194964403235844, 49.959016011303824 ] } },
{ "type": "Feature", "properties": { "name": "СПЧ-25", "staff": 68, "address": "г. Шахтинск ул. Торговая 53", "tech_base": 7, "tech_spec": 1, "tech_anc": 1, "KATO_obl": 350000000, "KATO_rai": 352810000, "region": 0, "district": 0, "USL": "00000023", "UNIT_ID": 524.000000, "DIC_MES_OR": 0.000000, "KATO": "352810000", "Contacts": null }, "geometry": { "type": "Point", "coordinates": [ 72.578640265287603, 49.712665104423351 ] } },
{ "type": "Feature", "properties": { "name": "ПЧ-26", "staff": 35, "address": "Бухар-Жырауский район п. Шахан, 41 квартал", "tech_base": 3, "tech_spec": 0, "tech_anc": 1, "KATO_obl": 350000000, "KATO_rai": 354000000, "region": 0, "district": 0, "USL": "00000024", "UNIT_ID": 525.000000, "DIC_MES_OR": 0.000000, "KATO": "352845100", "Contacts": null }, "geometry": { "type": "Point", "coordinates": [ 72.660602221230633, 49.825687411319826 ] } },
{ "type": "Feature", "properties": { "name": "ПЧ-28", "staff": 59, "address": "г. Сарань ул. Шахтёрская 6«а»", "tech_base": 9, "tech_spec": 1, "tech_anc": 2, "KATO_obl": 350000000, "KATO_rai": 352210000, "region": 0, "district": 0, "USL": "00000024", "UNIT_ID": 526.000000, "DIC_MES_OR": 0.000000, "KATO": "352210000", "Contacts": null }, "geometry": { "type": "Point", "coordinates": [ 72.829950201226424, 49.786773939539941 ] } },
{ "type": "Feature", "properties": { "name": "ПЧ-30", "staff": 67, "address": "Абайский район г. Абай ул. Железнодорожная 3", "tech_base": 7, "tech_spec": 1, "tech_anc": 1, "KATO_obl": 350000000, "KATO_rai": 353200000, "region": 0, "district": 0, "USL": "00000024", "UNIT_ID": 527.000000, "DIC_MES_OR": 0.000000, "KATO": "353220100", "Contacts": null }, "geometry": { "type": "Point", "coordinates": [ 72.858493647458133, 49.641713245767022 ] } },
{ "type": "Feature", "properties": { "name": "ПЧ-32", "staff": 24, "address": "Бухар-Жырауский район п. Токаревка ул. Футбольная 21", "tech_base": 4, "tech_spec": 0, "tech_anc": 1, "KATO_obl": 350000000, "KATO_rai": 354000000, "region": 0, "district": 0, "USL": "00000024", "UNIT_ID": 528.000000, "DIC_MES_OR": 0.000000, "KATO": "354081100", "Contacts": null }, "geometry": { "type": "Point", "coordinates": [ 73.175408482844119, 50.121100971414975 ] } },
{ "type": "Feature", "properties": { "name": "ПЧ-33", "staff": 23, "address": "Бухар-Жырауский район п. Куучек ул. Искакова 1", "tech_base": 1, "tech_spec": 0, "tech_anc": 1, "KATO_obl": 350000000, "KATO_rai": 354000000, "region": 0, "district": 0, "USL": "00000024", "UNIT_ID": 529.000000, "DIC_MES_OR": 0.000000, "KATO": "354061100", "Contacts": null }, "geometry": { "type": "Point", "coordinates": [ 73.407660598944915, 50.23577791042883 ] } },
{ "type": "Feature", "properties": { "name": "ПЧ-34", "staff": 24, "address": "Бухар-Жырауский район п. Ботакара ул. Казыбек би 61", "tech_base": 4, "tech_spec": 0, "tech_anc": 2, "KATO_obl": 350000000, "KATO_rai": 354000000, "region": 0, "district": 0, "USL": "00000024", "UNIT_ID": 530.000000, "DIC_MES_OR": 0.000000, "KATO": "354030100", "Contacts": null }, "geometry": { "type": "Point", "coordinates": [ 73.726713262112, 50.057015222223555 ] } },
{ "type": "Feature", "properties": { "name": "ПЧ-37", "staff": 25, "address": "Осакаровский район п. Осакаровка ул. Новая 39", "tech_base": 4, "tech_spec": 0, "tech_anc": 3, "KATO_obl": 350000000, "KATO_rai": 355600000, "region": 0, "district": 0, "USL": "00000024", "UNIT_ID": 531.000000, "DIC_MES_OR": 0.000000, "KATO": "355630100", "Contacts": null }, "geometry": { "type": "Point", "coordinates": [ 72.579765643234524, 50.567187192963587 ] } },
{ "type": "Feature", "properties": { "name": "ПЧ-38", "staff": 23, "address": "Осакаровский район п. Молодёжный ул. Мира 5 а", "tech_base": 4, "tech_spec": 0, "tech_anc": 2, "KATO_obl": 350000000, "KATO_rai": 355600000, "region": 0, "district": 0, "USL": "00000024", "UNIT_ID": 532.000000, "DIC_MES_OR": 0.000000, "KATO": "355657100", "Contacts": null }, "geometry": { "type": "Point", "coordinates": [ 73.527016843797611, 50.724361313859568 ] } },
{ "type": "Feature", "properties": { "name": "ПЧ-39", "staff": 25, "address": "Нуринский район п. Киевка ул. Резника 26", "tech_base": 4, "tech_spec": 0, "tech_anc": 1, "KATO_obl": 350000000, "KATO_rai": 355200000, "region": 0, "district": 0, "USL": "00000024", "UNIT_ID": 533.000000, "DIC_MES_OR": 0.000000, "KATO": "355230100", "Contacts": null }, "geometry": { "type": "Point", "coordinates": [ 71.554010609805104, 50.261319407671024 ] } },
{ "type": "Feature", "properties": { "name": "ПЧ-40", "staff": 24, "address": "Каркаралинский район г. Каркаралинск ул. Т.Аубакирова 32", "tech_base": 5, "tech_spec": 0, "tech_anc": 2, "KATO_obl": 350000000, "KATO_rai": 354800000, "region": 0, "district": 0, "USL": "00000024", "UNIT_ID": 534.000000, "DIC_MES_OR": 0.000000, "KATO": "354820100", "Contacts": null }, "geometry": { "type": "Point", "coordinates": [ 75.492171940547465, 49.418563957085212 ] } },
{ "type": "Feature", "properties": { "name": "ПЧ-41", "staff": 16, "address": "Каркаралинский район п. Егиндыбулак ул. Ленина 49", "tech_base": 4, "tech_spec": 0, "tech_anc": 1, "KATO_obl": 350000000, "KATO_rai": 354800000, "region": 0, "district": 0, "USL": "00000024", "UNIT_ID": 535.000000, "DIC_MES_OR": 0.000000, "KATO": "354851100", "Contacts": null }, "geometry": { "type": "Point", "coordinates": [ 76.394430084959211, 49.786723715316775 ] } },
{ "type": "Feature", "properties": { "name": "СПЧ-45", "staff": 87, "address": "г. Балхаш ул. Ленина 1", "tech_base": 8, "tech_spec": 2, "tech_anc": 4, "KATO_obl": 350000000, "KATO_rai": 351610000, "region": 0, "district": 0, "USL": "00000023", "UNIT_ID": 536.000000, "DIC_MES_OR": 0.000000, "KATO": "351610000", "Contacts": null }, "geometry": { "type": "Point", "coordinates": [ 74.954514676096352, 46.83843349473311 ] } },
{ "type": "Feature", "properties": { "name": "ПЧ-46", "staff": 24, "address": "Жанааркинский район г.Каражал ул. Кошмагамбетова 1", "tech_base": 3, "tech_spec": 0, "tech_anc": 2, "KATO_obl": 350000000, "KATO_rai": 354400000, "region": 0, "district": 0, "USL": "00000024", "UNIT_ID": 537.000000, "DIC_MES_OR": 0.000000, "KATO": "352010000", "Contacts": null }, "geometry": { "type": "Point", "coordinates": [ 70.796496354223407, 48.005524802590692 ] } },
{ "type": "Feature", "properties": { "name": "ПЧ-47", "staff": 50, "address": "Актогайский район г. Приозёрск б. Советской Армии", "tech_base": 4, "tech_spec": 1, "tech_anc": 2, "KATO_obl": 350000000, "KATO_rai": 353600000, "region": 0, "district": 0, "USL": "00000024", "UNIT_ID": 538.000000, "DIC_MES_OR": 0.000000, "KATO": "352110000", "Contacts": null }, "geometry": { "type": "Point", "coordinates": [ 73.701953057224628, 46.026826964990448 ] } },
{ "type": "Feature", "properties": { "name": "ПЧ-48", "staff": 20, "address": "Улытауский район п. Жезды ул. Кеншелер 18", "tech_base": 3, "tech_spec": 0, "tech_anc": 2, "KATO_obl": 350000000, "KATO_rai": 356000000, "region": 0, "district": 0, "USL": "00000024", "UNIT_ID": 539.000000, "DIC_MES_OR": 0.000000, "KATO": "356043100", "Contacts": null }, "geometry": { "type": "Point", "coordinates": [ 67.058960091390091, 48.066394755615207 ] } },
{ "type": "Feature", "properties": { "name": "ПЧ-49", "staff": 16, "address": "Улытауский район п. Улытау ул. Тайжина 4", "tech_base": 4, "tech_spec": 0, "tech_anc": 0, "KATO_obl": 350000000, "KATO_rai": 356000000, "region": 0, "district": 0, "USL": "00000024", "UNIT_ID": 540.000000, "DIC_MES_OR": 0.000000, "KATO": "356030100", "Contacts": null }, "geometry": { "type": "Point", "coordinates": [ 67.009596518480805, 48.652251992125848 ] } },
{ "type": "Feature", "properties": { "name": "ПЧ-50", "staff": 17, "address": "Жанааркинский район п. Атасу ул. Сейфуллина 4", "tech_base": 3, "tech_spec": 0, "tech_anc": 1, "KATO_obl": 350000000, "KATO_rai": 354400000, "region": 0, "district": 0, "USL": "00000024", "UNIT_ID": 541.000000, "DIC_MES_OR": 0.000000, "KATO": "354430100", "Contacts": null }, "geometry": { "type": "Point", "coordinates": [ 71.644724876714136, 48.686670796527949 ] } },
{ "type": "Feature", "properties": { "name": "ПЧ-51", "staff": 16, "address": "Шетский район п. Агадырь ул. Сейфуллина 2", "tech_base": 3, "tech_spec": 0, "tech_anc": 2, "KATO_obl": 350000000, "KATO_rai": 356400000, "region": 0, "district": 0, "USL": "00000024", "UNIT_ID": 542.000000, "DIC_MES_OR": 0.000000, "KATO": "356431100", "Contacts": null }, "geometry": { "type": "Point", "coordinates": [ 72.871293392496909, 48.265809382488598 ] } },
{ "type": "Feature", "properties": { "name": "ПЧ-52", "staff": 17, "address": "Шетский район п. Аксу-Аюлы ул. Тлеулина 28", "tech_base": 3, "tech_spec": 0, "tech_anc": 2, "KATO_obl": 350000000, "KATO_rai": 356400000, "region": 0, "district": 0, "USL": "00000024", "UNIT_ID": 543.000000, "DIC_MES_OR": 0.000000, "KATO": "356430100", "Contacts": null }, "geometry": { "type": "Point", "coordinates": [ 73.684832703130141, 48.766829215849206 ] } },
{ "type": "Feature", "properties": { "name": "ПЧ-53", "staff": 18, "address": "Актогайский район п. Актогай ул. Бокейхана 27", "tech_base": 3, "tech_spec": 0, "tech_anc": 1, "KATO_obl": 350000000, "KATO_rai": 353600000, "region": 0, "district": 0, "USL": "00000024", "UNIT_ID": 544.000000, "DIC_MES_OR": 0.000000, "KATO": "353630100", "Contacts": null }, "geometry": { "type": "Point", "coordinates": [ 74.98985972997653, 48.317947585412021 ] } },
{ "type": "Feature", "properties": { "name": "СПЧ-42", "staff": 80, "address": "г. Жезказган ул. Абая 132", "tech_base": 12, "tech_spec": 2, "tech_anc": 4, "KATO_obl": 350000000, "KATO_rai": 351810000, "region": 0, "district": 0, "USL": "00000023", "UNIT_ID": 545.000000, "DIC_MES_OR": 0.000000, "KATO": "351810000", "Contacts": null }, "geometry": { "type": "Point", "coordinates": [ 67.689139954773367, 47.794542967282823 ] } },
{ "type": "Feature", "properties": { "name": "ОП-43", "staff": 26, "address": "г. Жезказган Прибрежная зона", "tech_base": 0, "tech_spec": 1, "tech_anc": 9, "KATO_obl": 350000000, "KATO_rai": 351810000, "region": 0, "district": 0, "USL": "00000024", "UNIT_ID": 546.000000, "DIC_MES_OR": 0.000000, "KATO": "351810000", "Contacts": null }, "geometry": { "type": "Point", "coordinates": [ 67.721978400888659, 47.788801640517768 ] } },
{ "type": "Feature", "properties": { "name": "ПЧ-44", "staff": 76, "address": "г. Сатпаев ул. Гурбы 71", "tech_base": 6, "tech_spec": 1, "tech_anc": 2, "KATO_obl": 350000000, "KATO_rai": 352310000, "region": 0, "district": 0, "USL": "00000024", "UNIT_ID": 547.000000, "DIC_MES_OR": 0.000000, "KATO": "352310000", "Contacts": null }, "geometry": { "type": "Point", "coordinates": [ 67.551121803679465, 47.900538050116623 ] } },
{ "type": "Feature", "properties": { "name": "СПЧ-22", "staff": 85, "address": "г. Темиртау ул. Калинина 38", "tech_base": 5, "tech_spec": 2, "tech_anc": 2, "KATO_obl": 350000000, "KATO_rai": 352410000, "region": 0, "district": 0, "USL": "00000023", "UNIT_ID": 548.000000, "DIC_MES_OR": 0.000000, "KATO": "352410000", "Contacts": null }, "geometry": { "type": "Point", "coordinates": [ 72.993736523550311, 50.057116399767459 ] } },
{ "type": "Feature", "properties": { "name": "ПЧ-23", "staff": 68, "address": "г. Темиртау ул. Привокзальная 11", "tech_base": 5, "tech_spec": 0, "tech_anc": 2, "KATO_obl": 350000000, "KATO_rai": 352410000, "region": 0, "district": 0, "USL": "00000024", "UNIT_ID": 549.000000, "DIC_MES_OR": 0.000000, "KATO": "352410000", "Contacts": null }, "geometry": { "type": "Point", "coordinates": [ 72.924808097402135, 50.080514122890342 ] } },
{ "type": "Feature", "properties": { "name": "ГУ «СПиАСР» ДЧС Кызылординской области", "staff": 43, "address": "г.Кызылорда, ул.Женис 105", "tech_base": 2, "tech_spec": 0, "tech_anc": 0, "KATO_obl": 430000000, "KATO_rai": 431010000, "region": 0, "district": 0, "USL": "00000024", "UNIT_ID": 582.000000, "DIC_MES_OR": 0.000000, "KATO": "431010000", "Contacts": null }, "geometry": { "type": "Point", "coordinates": [ 65.525874334494816, 44.823871493528806 ] } },
{ "type": "Feature", "properties": { "name": "ЦОУСС", "staff": 15, "address": "г.Кызылорда, ул.Женис 105", "tech_base": 0, "tech_spec": 2, "tech_anc": 0, "KATO_obl": 430000000, "KATO_rai": 431010000, "region": 0, "district": 0, "USL": "0", "UNIT_ID": 583.000000, "DIC_MES_OR": 0.000000, "KATO": "431010000", "Contacts": null }, "geometry": { "type": "Point", "coordinates": [ 65.525839845476128, 44.82392797660674 ] } },
{ "type": "Feature", "properties": { "name": "ПЧТС", "staff": 6, "address": "г.Кызылорда, ул.Женис 105", "tech_base": 0, "tech_spec": 0, "tech_anc": 9, "KATO_obl": 430000000, "KATO_rai": 431010000, "region": 0, "district": 0, "USL": "00000024", "UNIT_ID": 584.000000, "DIC_MES_OR": 0.000000, "KATO": "431010000", "Contacts": null }, "geometry": { "type": "Point", "coordinates": [ 65.526075982919906, 44.823930743765757 ] } },
{ "type": "Feature", "properties": { "name": "СПЧ-11", "staff": 46, "address": "г.Кызылорда, ул.Женис 105", "tech_base": 5, "tech_spec": 1, "tech_anc": 2, "KATO_obl": 430000000, "KATO_rai": 431010000, "region": 0, "district": 0, "USL": "00000023", "UNIT_ID": 585.000000, "DIC_MES_OR": 0.000000, "KATO": "431010000", "Contacts": null }, "geometry": { "type": "Point", "coordinates": [ 65.526254397318496, 44.823962730152132 ] } },
{ "type": "Feature", "properties": { "name": "ПЧ-9", "staff": 40, "address": "г.Кызылорда, ул.Бейбитшилик 55", "tech_base": 3, "tech_spec": 1, "tech_anc": 1, "KATO_obl": 430000000, "KATO_rai": 431010000, "region": 0, "district": 0, "USL": "00000024", "UNIT_ID": 586.000000, "DIC_MES_OR": 0.000000, "KATO": "431010000", "Contacts": null }, "geometry": { "type": "Point", "coordinates": [ 65.482782897713932, 44.867987851343727 ] } },
{ "type": "Feature", "properties": { "name": "СПЧ-10", "staff": 47, "address": "г.Кызылорда, ул.Мерей  б\/н.", "tech_base": 4, "tech_spec": 3, "tech_anc": 1, "KATO_obl": 430000000, "KATO_rai": 431010000, "region": 0, "district": 0, "USL": "00000023", "UNIT_ID": 587.000000, "DIC_MES_OR": 0.000000, "KATO": "431010000", "Contacts": null }, "geometry": { "type": "Point", "coordinates": [ 65.462242492941115, 44.850798893767667 ] } },
{ "type": "Feature", "properties": { "name": "ПЧ-6", "staff": 36, "address": "г.Кызылорда, ул.Баймаганбетова 14", "tech_base": 6, "tech_spec": 0, "tech_anc": 0, "KATO_obl": 430000000, "KATO_rai": 431010000, "region": 0, "district": 0, "USL": "00000024", "UNIT_ID": 588.000000, "DIC_MES_OR": 0.000000, "KATO": "431047100", "Contacts": null }, "geometry": { "type": "Point", "coordinates": [ 65.551932030944315, 44.775271204927833 ] } },
{ "type": "Feature", "properties": { "name": "ПЧ-12", "staff": 36, "address": "г.Кызылорда, Южная промзона б\/н.", "tech_base": 4, "tech_spec": 1, "tech_anc": 0, "KATO_obl": 430000000, "KATO_rai": 431010000, "region": 0, "district": 0, "USL": "00000024", "UNIT_ID": 589.000000, "DIC_MES_OR": 0.000000, "KATO": "431047100", "Contacts": null }, "geometry": { "type": "Point", "coordinates": [ 65.537251595484577, 44.782367591502293 ] } },
{ "type": "Feature", "properties": { "name": "ПЧ-1", "staff": 35, "address": "Аральский район, г.Аральск ул.Бактыбай батыры 113", "tech_base": 4, "tech_spec": 0, "tech_anc": 1, "KATO_obl": 430000000, "KATO_rai": 433200000, "region": 0, "district": 0, "USL": "00000024", "UNIT_ID": 590.000000, "DIC_MES_OR": 0.000000, "KATO": "433220100", "Contacts": null }, "geometry": { "type": "Point", "coordinates": [ 61.680152855270563, 46.807456962665036 ] } },
{ "type": "Feature", "properties": { "name": "ПЧ-2", "staff": 35, "address": "Казалинский район, кент.Айтеке би, ул.Жанкожа батыра б\/н.", "tech_base": 3, "tech_spec": 0, "tech_anc": 2, "KATO_obl": 430000000, "KATO_rai": 434400000, "region": 0, "district": 0, "USL": "00000024", "UNIT_ID": 591.000000, "DIC_MES_OR": 0.000000, "KATO": "434430100", "Contacts": null }, "geometry": { "type": "Point", "coordinates": [ 62.160789617249307, 45.841518852166907 ] } },
{ "type": "Feature", "properties": { "name": "ОП ПЧ-2", "staff": 14, "address": "Казалинский район, г.Казалинск, ул. Уалиханова б\/н.", "tech_base": 2, "tech_spec": 0, "tech_anc": 0, "KATO_obl": 430000000, "KATO_rai": 434400000, "region": 0, "district": 0, "USL": "00000024", "UNIT_ID": 592.000000, "DIC_MES_OR": 0.000000, "KATO": "434423100", "Contacts": null }, "geometry": { "type": "Point", "coordinates": [ 62.105452966352836, 45.764406708740296 ] } },
{ "type": "Feature", "properties": { "name": "ПЧ-15", "staff": 27, "address": "г.Байконыр", "tech_base": 3, "tech_spec": 0, "tech_anc": 0, "KATO_obl": 430000000, "KATO_rai": 431910000, "region": 0, "district": 0, "USL": "00000024", "UNIT_ID": 593.000000, "DIC_MES_OR": 0.000000, "KATO": "431910000", "Contacts": null }, "geometry": { "type": "Point", "coordinates": [ 63.31359927156506, 45.624531239619671 ] } },
{ "type": "Feature", "properties": { "name": "ПЧ-3", "staff": 35, "address": "Кармакшинский район, п.Жосалы ул.Кушербаева 41", "tech_base": 5, "tech_spec": 0, "tech_anc": 1, "KATO_obl": 430000000, "KATO_rai": 434600000, "region": 0, "district": 0, "USL": "00000024", "UNIT_ID": 594.000000, "DIC_MES_OR": 0.000000, "KATO": "434630100", "Contacts": null }, "geometry": { "type": "Point", "coordinates": [ 64.098513907603632, 45.492606191351541 ] } },
{ "type": "Feature", "properties": { "name": "ПЧ-4", "staff": 35, "address": "Жалагашский район, п.Жалагаш ул.Мырзалиев 20", "tech_base": 4, "tech_spec": 0, "tech_anc": 1, "KATO_obl": 430000000, "KATO_rai": 433600000, "region": 0, "district": 0, "USL": "00000024", "UNIT_ID": 595.000000, "DIC_MES_OR": 0.000000, "KATO": "433630100", "Contacts": null }, "geometry": { "type": "Point", "coordinates": [ 64.674492118994024, 45.089636694022012 ] } },
{ "type": "Feature", "properties": { "name": "ПЧ-5", "staff": 35, "address": "Сырдарьинский район, п.Теренозек, ул Абая б\/н.", "tech_base": 5, "tech_spec": 0, "tech_anc": 2, "KATO_obl": 430000000, "KATO_rai": 434800000, "region": 0, "district": 0, "USL": "00000024", "UNIT_ID": 596.000000, "DIC_MES_OR": 0.000000, "KATO": "434830100", "Contacts": null }, "geometry": { "type": "Point", "coordinates": [ 64.971707848820174, 45.054508905446021 ] } },
{ "type": "Feature", "properties": { "name": "ПЧ-7", "staff": 35, "address": "Шиелинский район, п.Шиели ул.Жургенова 59", "tech_base": 4, "tech_spec": 0, "tech_anc": 2, "KATO_obl": 430000000, "KATO_rai": 435200000, "region": 0, "district": 0, "USL": "00000024", "UNIT_ID": 597.000000, "DIC_MES_OR": 0.000000, "KATO": "435230100", "Contacts": null }, "geometry": { "type": "Point", "coordinates": [ 66.747758967012558, 44.1655967826119 ] } },
{ "type": "Feature", "properties": { "name": "ОП ПЧ-7", "staff": 14, "address": "Шиелинский район, п.Шиели мкр.Кокшокы б\/н.", "tech_base": 3, "tech_spec": 0, "tech_anc": 0, "KATO_obl": 430000000, "KATO_rai": 435200000, "region": 0, "district": 0, "USL": "00000024", "UNIT_ID": 598.000000, "DIC_MES_OR": 0.000000, "KATO": "435230100", "Contacts": null }, "geometry": { "type": "Point", "coordinates": [ 66.744818702035886, 44.177176978166173 ] } },
{ "type": "Feature", "properties": { "name": "ПЧ-8", "staff": 35, "address": "Жанакорганский район, ул.Кожанова б\/н.", "tech_base": 6, "tech_spec": 0, "tech_anc": 1, "KATO_obl": 430000000, "KATO_rai": 434000000, "region": 0, "district": 0, "USL": "00000024", "UNIT_ID": 599.000000, "DIC_MES_OR": 0.000000, "KATO": "434030100", "Contacts": null }, "geometry": { "type": "Point", "coordinates": [ 67.260589480278369, 43.906079820692852 ] } },
{ "type": "Feature", "properties": { "name": "СПЧ-2", "staff": 55, "address": "г.Петропавловск ул.Жамбыла, 267", "tech_base": 4, "tech_spec": 3, "tech_anc": 2, "KATO_obl": 590000000, "KATO_rai": 591010000, "region": 0, "district": 0, "USL": "00000023", "UNIT_ID": 254.000000, "DIC_MES_OR": 0.000000, "KATO": "591010000", "Contacts": null }, "geometry": { "type": "Point", "coordinates": [ 69.156264669737197, 54.901521491656297 ] } },
{ "type": "Feature", "properties": { "name": "СПЧ-3", "staff": 57, "address": "г.Петропавловск ул.Советская, 38", "tech_base": 3, "tech_spec": 2, "tech_anc": 1, "KATO_obl": 590000000, "KATO_rai": 591010000, "region": 0, "district": 0, "USL": "00000023", "UNIT_ID": 255.000000, "DIC_MES_OR": 0.000000, "KATO": "591010000", "Contacts": null }, "geometry": { "type": "Point", "coordinates": [ 69.127966653122556, 54.873340243177772 ] } },
{ "type": "Feature", "properties": { "name": "ПЧ-4", "staff": 40, "address": "г.Петропавловск ул.Пугачева, 129", "tech_base": 2, "tech_spec": 0, "tech_anc": 0, "KATO_obl": 590000000, "KATO_rai": 591010000, "region": 0, "district": 0, "USL": "00000024", "UNIT_ID": 256.000000, "DIC_MES_OR": 0.000000, "KATO": "591010000", "Contacts": null }, "geometry": { "type": "Point", "coordinates": [ 69.172917662728693, 54.849565820612753 ] } },
{ "type": "Feature", "properties": { "name": "Подчиненная ПЧ-5", "staff": 25, "address": "г.Петропавловск ул.Невского, 8", "tech_base": 2, "tech_spec": 0, "tech_anc": 0, "KATO_obl": 590000000, "KATO_rai": 591010000, "region": 0, "district": 0, "USL": "00000024", "UNIT_ID": 257.000000, "DIC_MES_OR": 0.000000, "KATO": "591010000", "Contacts": null }, "geometry": { "type": "Point", "coordinates": [ 69.20998153780215, 54.865473259817051 ] } },
{ "type": "Feature", "properties": { "name": "ПЧ технической службы №6", "staff": 33, "address": "г.Петропавловск ул.Я.Гашека, 31 «Б»", "tech_base": 5, "tech_spec": 3, "tech_anc": 18, "KATO_obl": 590000000, "KATO_rai": 591010000, "region": 0, "district": 0, "USL": "00000024", "UNIT_ID": 258.000000, "DIC_MES_OR": 0.000000, "KATO": "591010000", "Contacts": null }, "geometry": { "type": "Point", "coordinates": [ 69.191028504645374, 54.894926155827775 ] } },
{ "type": "Feature", "properties": { "name": "Школа профессиональной подготовки", "staff": 5, "address": "г.Петропавловск ул.Я.Гашека, 31 «А» (ШПП дислоцируется в помещениях, арендуемых ГУ «СПиАСР» ДЧС СКО у АО «?рт с?ндіруші»)", "tech_base": 0, "tech_spec": 0, "tech_anc": 0, "KATO_obl": 590000000, "KATO_rai": 591010000, "region": 0, "district": 0, "USL": "0", "UNIT_ID": 281.000000, "DIC_MES_OR": 0.000000, "KATO": "591010000", "Contacts": null }, "geometry": { "type": "Point", "coordinates": [ 69.191292481778135, 54.894916229336616 ] } },
{ "type": "Feature", "properties": { "name": "ПЧ-7", "staff": 21, "address": "Айыртауский район, с.Саумалколь, микрорайон, 22", "tech_base": 4, "tech_spec": 0, "tech_anc": 2, "KATO_obl": 590000000, "KATO_rai": 593200000, "region": 0, "district": 0, "USL": "00000024", "UNIT_ID": 259.000000, "DIC_MES_OR": 0.000000, "KATO": "593230100", "Contacts": null }, "geometry": { "type": "Point", "coordinates": [ 68.111383595712098, 53.288883171758826 ] } },
{ "type": "Feature", "properties": { "name": "Пост ПЧ-7", "staff": 17, "address": "Айыртауский район, с. Арыкбалык ул. Центральная, 1", "tech_base": 3, "tech_spec": 0, "tech_anc": 1, "KATO_obl": 590000000, "KATO_rai": 593200000, "region": 0, "district": 0, "USL": "00000024", "UNIT_ID": 260.000000, "DIC_MES_OR": 0.000000, "KATO": "593235100", "Contacts": null }, "geometry": { "type": "Point", "coordinates": [ 68.208129555680628, 52.952198065341157 ] } },
{ "type": "Feature", "properties": { "name": "ПЧ-8", "staff": 21, "address": "Акжарский район, с.Талшик ул.Вокзальная, 1", "tech_base": 2, "tech_spec": 0, "tech_anc": 1, "KATO_obl": 590000000, "KATO_rai": 593400000, "region": 0, "district": 0, "USL": "00000024", "UNIT_ID": 262.000000, "DIC_MES_OR": 0.000000, "KATO": "593430100", "Contacts": null }, "geometry": { "type": "Point", "coordinates": [ 71.879773913621719, 53.641983760892479 ] } },
{ "type": "Feature", "properties": { "name": "Пост ПЧ-8", "staff": 14, "address": "Акжарский район, с.Ленинградское ул.М.Горького, 25", "tech_base": 3, "tech_spec": 0, "tech_anc": 0, "KATO_obl": 590000000, "KATO_rai": 593400000, "region": 0, "district": 0, "USL": "00000024", "UNIT_ID": 261.000000, "DIC_MES_OR": 0.000000, "KATO": "593439100", "Contacts": null }, "geometry": { "type": "Point", "coordinates": [ 71.547969491621686, 53.53227662943037 ] } },
{ "type": "Feature", "properties": { "name": "ПЧ-9", "staff": 21, "address": "Аккаинский район, с. Смирново ул.Народная, 62", "tech_base": 3, "tech_spec": 0, "tech_anc": 0, "KATO_obl": 590000000, "KATO_rai": 595800000, "region": 0, "district": 0, "USL": "00000024", "UNIT_ID": 263.000000, "DIC_MES_OR": 0.000000, "KATO": "595830100", "Contacts": null }, "geometry": { "type": "Point", "coordinates": [ 69.425547263345791, 54.508652733928912 ] } },
{ "type": "Feature", "properties": { "name": "ПЧ-10", "staff": 21, "address": "Есильский район, с.Явленка ул.Шокаева, 30", "tech_base": 3, "tech_spec": 0, "tech_anc": 0, "KATO_obl": 590000000, "KATO_rai": 594200000, "region": 0, "district": 0, "USL": "00000024", "UNIT_ID": 264.000000, "DIC_MES_OR": 0.000000, "KATO": "594230100", "Contacts": null }, "geometry": { "type": "Point", "coordinates": [ 68.476556487811408, 54.338969511069507 ] } },